room_id,city,name,title,nightly_price,rating_value,rating_count,latitude,longitude,badge_superhost,badge_guest_favorite,badge_top_x,period
1433468381839601366,agadir,Urban Prestige – Comfort and elegance,Apartment in Agadir,49641.0,4.79,24,30.4388,-9.5639,True,False,False,march
1512887718605315416,agadir,"Chic and contemporary, comfort guaranteed.",Apartment in Agadir,48000.0,5.0,8,30.4341,-9.5593,False,True,True,march
1315889253061102084,agadir,Rare Gem in Downtown – Studio,Apartment in Agadir,43434.0,4.88,49,30.4243,-9.5879,False,True,False,march
1139986052055387191,agadir,Boho in Agadir with pool | fiber optic,Apartment in Agadir,42908.0,4.93,72,30.4348,-9.5608,False,True,False,march
1515798789788952781,agadir,"Small, private single room",Place to stay in Agadir,22704.0,0.0,0,30.4292,-9.6242,False,False,False,march
1338393773696282574,agadir,Family-friendly apartment in Agadir,Apartment in Agadir,42475.0,4.96,75,30.435824148765025,-9.565170961814454,False,True,True,march
1423339758993017247,agadir,City center appartement with Hamam,Apartment in Agadir,49596.0,5.0,26,30.4072,-9.5738,False,True,False,march
1182354727829698378,agadir,Apartment B living room,Condo in Dcheira El Jihadia,36160.0,4.76,33,30.3845,-9.5288,False,True,False,march
1440636112439790243,agadir,Sunny & Elegant Apart 90m² in the Heart of Agadir,Apartment in Agadir,52494.0,4.96,24,30.4149,-9.5762,False,True,True,march
43807462,agadir,Home Sweet Cozy Home,Apartment in Agadir,36061.0,4.94,119,30.4001,-9.5561,False,True,True,march
1479945782497104530,agadir,My little paradise,Apartment in Agadir,49071.0,5.0,15,30.4218,-9.592,False,True,True,march
991996902141093866,agadir,Spacious APT in Agadir Near the Royal Palace & Beach,Condo in Agadir,31040.0,4.74,145,30.3894,-9.5741,False,False,False,march
1499435187218590320,agadir,The Beige Nest Agadir - New & Peaceful Vibes,Apartment in Agadir,43157.0,4.87,15,30.43533835527745,-9.565701005394706,False,True,False,march
1533921980000197224,agadir,"Perla living, Studio haut standing.",Apartment in Agadir,49071.0,5.0,5,30.4017,-9.5773,False,False,False,march
31943544,agadir,"Apartment in the center of Agadir, 2.5 km from the sea",Condo in Agadir,31390.0,4.83,100,30.42839,-9.58875,False,True,False,march
20137065,agadir,Private room with bathroom,Room in Agadir,28648.0,4.94,138,30.4312,-9.5867,False,True,False,march
1342785628583474110,agadir,Bright and welcoming accommodation,Apartment in Agadir,55905.0,4.95,21,30.43774623554524,-9.56369313045635,False,True,False,march
1192823714560559806,agadir,Joli appartement  à talborjt,Apartment in Agadir,44677.0,4.88,60,30.427222438342184,-9.592876916129937,False,True,False,march
1395644468866509960,agadir,Family apartment in the heart of Agadir,Apartment in Agadir,41653.0,4.92,37,30.3923,-9.5541,False,True,True,march
1417618051335050420,agadir,Emerald Apartment with Pool,Apartment in Agadir,50212.0,4.96,27,30.435208742387893,-9.557899800826132,False,True,False,march
1382067150050662474,agadir,Luxe et Confort - Vue Spectaculaire sur la Ville,Apartment in Agadir,46400.0,4.94,32,30.4337,-9.5593,False,True,True,march
1173143238809487457,agadir,Warm and sunny apartment,Apartment in Agadir,38714.0,4.9,90,30.4,-9.5495,False,True,False,march
1020388318125658759,agadir,Modern Calm & Clean Apt Agadir,Apartment in Agadir,39941.0,4.99,159,30.42793,-9.55739,False,True,True,march
1267289745634328333,agadir,HarmoniKalm: Softness and tranquility assured,Apartment in Agadir,33094.0,4.86,22,30.43233,-9.55273,False,True,False,march
1469815120291608734,agadir,"Modern Comfort | AC, WiFi, Netflix, 12min Beach",Apartment in Agadir,32980.0,4.94,17,30.394266729015804,-9.558637280444634,False,True,False,march
1405204126481795427,agadir,New Apartment In Downtown Agadir.,Apartment in Agadir,39941.0,4.96,28,30.432,-9.5533,False,True,True,march
1553782853474895247,agadir,Agadir Central Comfort - Downtown Apartment,Apartment in Agadir,50733.0,0.0,0,30.4151,-9.5877,True,False,False,march
1236161710625245511,agadir,Beautiful apartment in Talborjt.,Apartment in Agadir,43136.0,4.77,62,30.42133,-9.59247,False,True,False,march
1105826195518935570,agadir,Apartment in the center of Agadir,Apartment in Agadir,41425.0,5.0,94,30.4004,-9.5692,False,True,True,march
1421233110972168058,agadir,Beautiful apartment with parking,Home in Agadir,45191.0,4.52,33,30.4091,-9.5756,True,False,False,march
1191908817791879281,agadir,Entire place Rooftop Agadir with Wi-Fi & IPTV,Apartment in Agadir,43365.0,4.97,36,30.4561,-9.6315,False,True,True,march
1463802279568618865,agadir,Bohemian Fugue in Agadir,Apartment in Agadir,34235.0,4.88,17,30.38766508358644,-9.541262021337594,False,True,False,march
1543981773130067763,agadir,Oriental chic with pool | fiber optics,Apartment in Agadir,31382.0,0.0,0,30.4352,-9.5619,True,False,False,march
8935699,agadir,Room Homestay with private bathroom,Room in Agadir,28648.0,4.87,179,30.4342,-9.5839,False,True,True,march
1474578142608310433,agadir,Charming apartment in Agadir,Condo in Agadir,47815.0,4.87,15,30.4172,-9.5964,False,False,False,march
1394966942100589876,agadir,Chic Designer Apartment with Pool Access,Apartment in Agadir,31953.0,5.0,7,30.437829210555343,-9.56367308818749,False,True,False,march
1361620210304285737,agadir,Comfortable and quiet studio near downtown,Apartment in Agadir,35376.0,4.83,6,30.4162,-9.589,True,False,False,march
20125618,agadir,"Real Moroccan lifestyle| FREE Wifi , Sunshine #4",Room in Agadir,28648.0,4.88,344,30.3984,-9.56345,False,True,False,march
1055832133068089426,agadir,private room in a shared apartment with pool!,Room in Agadir,22824.0,5.0,40,30.4345,-9.56,False,True,True,march
1456685751340645377,agadir,Terrace • Fast Fiber WI-FI • Quiet Studio,Apartment in Agadir,49071.0,4.9,10,30.406050982189367,-9.558855657833956,False,True,False,march
1455300880371184964,agadir,Cosy Home in Agadir,Apartment in Agadir,43365.0,4.96,26,30.437990970219108,-9.56101889065008,False,True,True,march
1412983335419363959,agadir,Villa Riad Style - WIFI & Garden,Villa in Agadir,42224.0,5.0,5,30.390431575134293,-9.570718256694263,False,True,False,march
1544811168974215331,agadir,Urban chic apartment S2,Apartment in Agadir,27674.0,0.0,0,30.430162846072985,-9.556397467354534,False,False,False,march
1430684011761988833,agadir,"Hilton Apartment with Pool, Agadir – Aerial View",Apartment in Agadir,43365.0,4.95,19,30.437534683774167,-9.560915871469716,False,True,False,march
43302245,agadir,Studio in the city center of Agadir,Apartment in Agadir,44506.0,4.78,137,30.42416,-9.59478,False,True,False,march
1301240573128178078,agadir,"Bright, spacious, pool",Apartment in Agadir,48272.0,4.89,35,30.4362,-9.5639,True,False,False,march
1285728248392219630,agadir,"Bright apartment with pool – Islane,",Apartment in Agadir,54116.0,4.78,41,30.43436,-9.56137,True,False,False,march
1511732909127432445,agadir,Africa Cup 2025 • Urban Nest Experience • Central,Apartment in Agadir,41710.0,0.0,0,30.4334,-9.5582,False,False,False,march
52265042,agadir,Royal Luxury Studio • Pool • Free Parking,Condo in Agadir,38200.0,4.9,68,30.42937,-9.55568,False,True,False,march
1469819075385534310,agadir,Apartment in the heart of Agadir Haut Founty,Apartment in Agadir,45510.0,5.0,11,30.39276,-9.56715,False,True,False,march
925945510324066649,agadir,luxury apartment,Condo in Agadir,36632.0,5.0,32,30.4008,-9.5546,False,True,True,march
1197934149461593060,agadir,Comfort Stay | Pool | Fiber | Air conditioning | Netflix | Balcony,Apartment in Agadir,46337.0,4.95,105,30.4357,-9.563,False,True,True,march
1331119878117180987,agadir,El Kenz,Apartment in Agadir,44000.0,4.87,30,30.433578972850185,-9.5584632026802,False,False,False,march
1214463435284786605,agadir,The Gates of Agadir Bay,Apartment in Agadir,52608.0,4.85,48,30.4028,-9.5821,True,False,False,march
1396859613253085805,agadir,Sun home apartment,Apartment in Agadir,43846.0,5.0,21,30.41924088733142,-9.57794231433923,False,True,True,march
1484530206165850179,agadir,Chic Urban Studio With Stunning City & Ocean View,Apartment in Agadir,45076.0,5.0,4,30.4355,-9.5624,False,False,False,march
918979439440544382,agadir,central-house,Apartment in Agadir,27274.0,4.89,90,30.3932,-9.5722,False,True,False,march
1125839144615031993,agadir,Panoramic view apartment,Apartment in Agadir,43479.0,4.81,59,30.43704,-9.5637,True,False,False,march
1457302006223799089,agadir,The Caring Corner,Apartment in Inezgane-Ait Melloul Prefecture,31600.0,5.0,5,30.38761,-9.53633,False,False,False,march
919731304626512715,agadir,Very nice apartment in the heart of Agadir.,Apartment in Agadir,37568.0,4.9,48,30.4,-9.5545,True,False,False,march
1244928228719125070,agadir,Comfort and quiet in the heart of the city,Apartment in Agadir,48842.0,4.96,23,30.3997,-9.5709,False,True,False,march
1293651476863002013,agadir,Cozy apartment in the city center 7 minutes from the beach,Apartment in Agadir,54320.0,4.84,25,30.420029014878697,-9.573901825001384,False,False,False,march
1403952624856614474,agadir,Chic et Central,Apartment in Agadir,48614.0,5.0,29,30.4364,-9.5634,False,True,True,march
1419678290267199180,agadir,Kasbah apartment,Apartment in Agadir,42566.0,4.86,21,30.4339,-9.56,True,False,False,march
1161747662240533839,agadir,"Moderne, Cosy & Confortable",Apartment in Agadir,40626.0,5.0,7,30.4128,-9.5653,False,False,False,march
1470247036490273834,agadir,Break in a small cozy nest in Agadir,Apartment in Agadir,40398.0,4.92,13,30.392975529600616,-9.556076145379812,False,True,False,march
826186097773277898,agadir,"Intimate Charm: Your Small Studio, Great Comfort",Condo in Agadir,56980.0,4.86,148,30.4357,-9.5631,True,False,False,march
802397,agadir,beautiful bedrooms in a house,Rooms in Agadir,41733.0,4.81,26,30.3803,-9.5681,False,True,False,march
1494481772636324075,agadir,Cozy apartment near McDonalds Dakhla,Apartment in Agadir,34235.0,5.0,6,30.4125,-9.5454,False,True,False,march
1388310180561542302,agadir,Cozy Apt • 9 min to Beach • Wi-Fi & Nespresso,Apartment in Agadir,37659.0,5.0,4,30.4386,-9.565,False,False,False,march
1176120118193229927,agadir,Luminous apartment and high center founty agadir,Apartment in Agadir,40169.0,4.67,12,30.399174024253966,-9.576391988165248,False,False,False,march
915060596339551787,agadir,Splendid Apartment with Pool in Agadir,Apartment in Agadir,39371.0,4.96,82,30.4348,-9.5623,False,True,False,march
1476391448061897979,agadir,Modern elegant with pool | fiber optic,Apartment in Agadir,39371.0,4.58,12,30.43447699148549,-9.562451717779936,True,False,False,march
1389850538704099766,agadir,furnished apartment for rent,Apartment in Agadir,28529.0,4.55,20,30.43275,-9.55368,False,False,False,march
1425557877511995408,agadir,Cozy Family Retreat Near Beach & Adrar Stadium,Apartment in Agadir,38115.0,5.0,12,30.430112791283086,-9.554093781010303,False,True,False,march
1405268707793066113,agadir,Modern apartment with garden in the center of Agadir,Apartment in Agadir,39109.0,4.9,10,30.432,-9.5828,False,True,False,march
1412870774500914537,agadir,"Equipped studio, pool view.",Condo in Agadir,32660.0,5.0,4,30.4357,-9.5583,False,False,False,march
1458708368206047057,agadir,"Spacious and bright, close to the city center (5 min)",Apartment in Agadir,47815.0,5.0,5,30.4368,-9.5653,False,True,False,march
1169462495746409172,agadir,Luxury air-conditioned apartment. Free parking,Apartment in Agadir,33094.0,4.95,43,30.4006,-9.53617,False,True,True,march
1108827930897496232,agadir,Razan's Cozy Corner,Condo in Agadir,34400.0,4.75,75,30.3889,-9.5116,False,False,False,march
1436085708794649959,agadir,Cozy Retreat | 10 min to Adrar Stadium | CAF 2025,Apartment in Agadir,46104.0,5.0,8,30.4358,-9.5731,False,True,False,march
1340592689910384158,agadir,"Cozy apartment: Pool, WiFi, Terrace & Air conditioning",Apartment in Agadir,38861.0,4.92,38,30.4342,-9.5604,False,True,False,march
745552781588717636,agadir,Modern apartment with double facades,Condo in Agadir,49823.0,4.88,42,30.4347,-9.5605,False,True,False,march
1179084097126537665,agadir,Appartement Agadir,Apartment in Agadir,34235.0,4.8,45,30.38876,-9.51068,False,True,False,march
965345554563617067,agadir,Cozy House with front Garden,Home in Agadir,36871.0,4.77,74,30.425,-9.5795,True,False,False,march
1123865513267634434,agadir,Well-located apartment is quiet,Apartment in Agadir,34235.0,4.87,54,30.4153,-9.5756,False,True,False,march
1429638566712315139,agadir,"Modern, charming and central | Fiber optic",Apartment in Agadir,51467.0,4.81,16,30.3993,-9.5802,True,False,False,march
1112344660457251567,agadir,Pool+Parking+MasterBed+Fiber+10Minute,Condo in Agadir,46789.0,4.85,33,30.4351,-9.5618,True,False,False,march
1214476183507191918,agadir,My little comfort in Agadir,Apartment in Agadir,39142.0,4.87,30,30.3999,-9.564,False,True,False,march
1463307136763394312,agadir,Morocco Haven Modern Agadir Stay,Condo in Agadir,40831.0,5.0,5,30.42647,-9.56149,False,False,False,march
1499107444939568395,agadir,"Atlas Dream, Pearl of the Sun in the City Center",Apartment in Agadir,44962.0,0.0,0,30.4189,-9.5771,False,False,False,march
41311309,agadir,Mina Home minutes from Adrar Stadium and the beach,Apartment in Agadir,27114.0,4.96,27,30.4114,-9.5554,False,True,False,march
1445147223738050704,agadir,7 Min to Agadir Stadium Modern Apt with AC & WiFi,Apartment in Agadir,28278.0,4.85,20,30.4334,-9.5559,False,True,True,march
1141105006829599162,agadir,Nice apartment and panoramic view,Apartment in Agadir,40398.0,4.87,39,30.4387,-9.5658,False,True,False,march
1502070513199267114,agadir,Atlas Refuge 2 Bedroom Apartment,Apartment in Agadir,44848.0,0.0,0,30.4374,-9.5598,False,False,False,march
1002658391090703269,agadir,Le Safran: 900 meters from the beach.,Apartment in Agadir,51353.0,4.94,67,30.4106,-9.5901,False,True,True,march
710978706512739979,agadir,"Chic Studio in Town: Pool, Wi-Fi, Parking.",Apartment in Agadir,43981.0,4.82,22,30.4412,-9.56168,False,True,False,march
1342775539375772139,agadir,Swimming pool + Master Bed + Fiber optics,Apartment in Agadir,52111.0,5.0,8,30.43520191893472,-9.56163211200035,False,True,False,march
1221010149167745086,agadir,Museum style - Souk and Beach nearby,Apartment in Agadir,33094.0,5.0,3,30.39,-9.57,True,False,False,march
18403173,agadir,"house in the center of Agadir, 2 km from the beach",Townhouse in Agadir,40107.0,4.7,114,30.42667,-9.59136,True,False,False,march
546770915179766318,agadir,"Apartment in the center, Cozy and typical",Apartment in Agadir,53140.0,4.65,94,30.4175,-9.5934,True,False,False,march
1458784646550214158,agadir,"Charming and cozy, in Agadir near the center",Apartment in Agadir,38001.0,4.88,8,30.4357,-9.5633,False,True,False,march
1291926668027289506,agadir,Modern comfort in Islane,Condo in Agadir,48386.0,4.96,28,30.43581984486429,-9.563381503932428,True,False,False,march
1453589035106074416,agadir,The Magnificent - Comfort and proximity to Agadir,Apartment in Agadir,50212.0,5.0,4,30.4064,-9.5489,False,False,False,march
33779695,agadir,"Modern, right in the center, beach 25 min walk.",Apartment in Agadir,42224.0,4.77,203,30.4214,-9.5911,True,False,False,march
1253020310438030965,agadir,Comfort apartment Agadir,Apartment in Agadir,40241.0,4.88,33,30.4377,-9.5614,False,True,False,march
34685674,agadir,New modern apt and well equipped satellite wifi,Condo in Agadir,39859.0,4.84,55,30.4254,-9.5807,True,False,False,march
942884490068259015,agadir,Berber bohemian accommodation. Calm & Charming Agadir,Apartment in Agadir,50212.0,4.88,25,30.3949,-9.5148,False,True,False,march
1382573833125739949,agadir,Pleasant Apartment Agadir Everything nearby,Apartment in Agadir,30812.0,5.0,3,30.432,-9.5533,False,False,False,march
1074040316343290344,agadir,"Marina 12 min, Stadium 10 min, Wi-Fi, Parking",Condo in Agadir,41104.0,4.79,14,30.438,-9.56,False,True,False,march
923304951642618673,agadir,Elegant Apartment Minutes Away From The Beach,Condo in Agadir,34190.0,4.87,99,30.3986,-9.56,False,True,False,march
965347009319807540,agadir,Cosy Budget apartment Saada 2 Hay Mohammadi Agadir,Apartment in Agadir,39295.0,4.89,45,30.4379,-9.5608,False,True,False,march
1434265087226806795,agadir,Calm & Comfy Apart | Free Parking | Netflix & IPTV,Apartment in Agadir,32866.0,4.87,15,30.4344,-9.5615,False,True,False,march
26108742,agadir,"Beautiful apartment close to everything, city center + Wi-Fi",Condo in Agadir,31648.0,4.82,115,30.3949,-9.5539,False,True,False,march
824668665935430968,agadir,Cozy Modern Stylish Apartment,Apartment in Agadir,41995.0,4.92,92,30.436,-9.563,False,True,True,march
15357791,agadir,Beautiful 100 m2 apartment with 2 50 m2 terraces,Condo in Agadir,54805.0,4.88,143,30.39423,-9.54773,False,True,False,march
1268297279026344471,agadir,Brand new studio with pool and balcony,Apartment in Agadir,34806.0,4.95,20,30.431637562629973,-9.554170441209942,False,True,True,march
861631196743671484,agadir,"Elegant Apartment, Air-Conditioned, Pool View, Wi-Fi",Apartment in Agadir,32135.0,4.81,26,30.43498,-9.55971,False,True,False,march
1457956806406581531,agadir,Terrace • WI-FI • Charming Studio,Apartment in Agadir,47929.0,5.0,5,30.405739197505667,-9.558282169441211,True,False,False,march
1177486176986758440,agadir,"Modern, Urban & Comfortable",Apartment in Agadir,49071.0,4.94,32,30.4127,-9.5655,False,True,False,march
1540483919731669824,agadir,"Agadir getaway: close to the beach, market & restaurants",Condo in Agadir,46298.0,0.0,0,30.4025,-9.5738,False,False,False,march
965255015955154080,agadir,"Cozy , Wi-Fi & Style – 12 min drive to the Beach",Condo in Agadir,29579.0,4.97,62,30.39345,-9.55812,False,True,False,march
14138912,agadir,Large 2 room modern new air conditioning wifi and satelitte,Condo in Agadir,39859.0,4.75,162,30.4245,-9.5847,True,False,False,march
1518315794159404548,agadir,Studio Lumières d'Oufella with Pool - City view,Apartment in Agadir,40649.0,4.67,3,30.435772833893136,-9.56205958507456,False,False,False,march
1453131086238596254,agadir,"Sunny Cozy Stay | Wi-Fi, AC, Netflix, 12min Beach",Apartment in Agadir,31337.0,4.88,8,30.39246,-9.56009,True,False,False,march
1487057185272106215,agadir,Respectable and quiet building,Condo in Agadir,40284.0,0.0,0,30.412252565609005,-9.589494351100177,False,False,False,march
28837974,agadir,apartment in the city center 300 m from Talborjt,Condo in Agadir,39859.0,4.79,109,30.42653,-9.58599,False,True,False,march
1252050557911404699,agadir,Beautiful apartment in Agadir,Apartment in Agadir,21568.0,4.83,6,30.4547,-9.6285,False,True,False,march
1195622661493575801,agadir,Nice apartment in Agadir,Apartment in Agadir,45647.0,4.95,21,30.4358,-9.5664,False,True,True,march
1206634789901552391,agadir,app1,Apartment in Agadir,57059.0,5.0,8,30.4128,-9.5797,False,True,False,march
1408962217287162278,agadir,"Cozy apartment, in secure residence",Condo in Agadir,44164.0,4.54,13,30.4003,-9.5393,False,False,False,march
39545736,agadir,"Very nice apartment, Wi-Fi & 24/7 security",Condo in Agadir,37659.0,4.93,41,30.4359,-9.5518,False,True,False,march
951527477099518486,agadir,New&Cozy Studio in Islane Agadir,Apartment in Agadir,51816.0,5.0,54,30.4354,-9.5616,False,True,True,march
1449399671816505419,agadir,Apartment in Agadir,Condo in Agadir,43626.0,4.89,9,30.3969,-9.55226,False,True,False,march
908482234374910887,agadir,Nice quiet and sunny apartment - Villa area,Home in Agadir,53749.0,4.87,23,30.43574,-9.591,False,True,False,march
1114516012659918830,agadir,calm & comfort in agadir,Apartment in Agadir,33071.0,4.8,20,30.39968,-9.56403,False,False,False,march
991189951731661634,agadir,Beautiful Studio with Pool,Place to stay in Agadir,36965.0,4.74,34,30.4357,-9.5632,True,False,False,march
787788525601211273,agadir,Apartment in the city_center,Condo in Agadir,39941.0,4.77,13,30.4132,-9.5746,False,False,False,march
1553635440932406378,agadir,Space and Comfort in the Heart of Agadir,Apartment in Agadir,54200.0,0.0,0,30.42917112074541,-9.564608909551431,False,False,False,march
1377028425718433779,agadir,"""Family apartment in Agadir""",Apartment in Agadir,47929.0,4.85,26,30.3866,-9.5309,False,True,False,march
1210927879414064745,agadir,app 8,Apartment in Agadir,52494.0,5.0,12,30.41626,-9.57692,False,True,False,march
781536075210333192,agadir,Cozy and well-equipped apartment.,Apartment in Agadir,49071.0,4.79,61,30.4366,-9.5636,False,True,False,march
1433857544433297477,agadir,"Beautiful apartment, warm | fiber optic",Apartment in Agadir,41196.0,5.0,8,30.4355,-9.5554,False,True,False,march
1476298413777361148,agadir,Panoramic view with pool | fiber optic,Apartment in Agadir,41311.0,4.83,6,30.43443,-9.56289,True,False,False,march
916076733058150527,agadir,Authentic Family Stay in the Heart of Agadir,Apartment in Agadir,37933.0,4.83,29,30.3968,-9.5487,False,True,False,march
1542202569680298674,agadir,At home A2,Apartment in Agadir,36851.0,0.0,0,30.4306,-9.5557,False,False,False,march
1478295500514180671,agadir,Luxury Renovated Apartment in Agadir,Apartment in Agadir,32227.0,4.82,11,30.398460777475908,-9.51446698888522,False,False,False,march
678250897250515494,agadir,Bright and Charming Studio,Condo in Agadir,36746.0,4.9,30,30.4334,-9.5593,False,True,False,march
1282501399220948401,agadir,Appartement islane meublé,Apartment in Agadir,45875.0,4.44,18,30.4359,-9.5632,False,False,False,march
1420601576451246838,agadir,quiet apartment,Apartment in Agadir,30127.0,0.0,0,30.391470633920477,-9.54567112767518,True,False,False,march
1096506363396727709,agadir,Bright apartment near the Beach (15 min walking),Apartment in Agadir,52129.0,4.68,60,30.4158,-9.5918,False,False,False,march
12994570,agadir,Warm and bright flat in Agadir,Apartment in Agadir,35376.0,4.6,152,30.4313,-9.5564,True,False,False,march
1507945296778423757,agadir,Comfortable stay 7 min from the Grand Stade d'Agadir,Apartment in Agadir,45647.0,4.67,3,30.4332,-9.5512,False,False,False,march
929647284902508142,agadir,Comfortable apartment in a quiet area,Apartment in Agadir,51353.0,4.84,19,30.43336,-9.59374,False,True,False,march
1248528888992730292,agadir,Cozy & Chill Apartment Stay,Apartment in Agadir,34121.0,4.71,21,30.4212,-9.5548,False,False,False,march
1479267487466317132,agadir,Apartments in Salam neighborhood with elevator,Apartment in Agadir,34235.0,5.0,8,30.39989,-9.54683,False,True,False,march
1263149413920775870,agadir,Wonderful apartment with a pool and sea view.,Apartment in Agadir,49716.0,4.93,14,30.4362,-9.5632,True,False,False,march
25923106,agadir,Close to city center • Quiet • Wi-Fi & well-equipped,Apartment in Agadir,37700.0,4.73,108,30.4076,-9.5483,False,False,False,march
871068844138653944,agadir,Sublime appartement style cosy,Apartment in Agadir,50326.0,4.82,74,30.43911,-9.55844,False,True,False,march
703564223747193910,agadir,Dream apartment beach and souk close,Apartment in Agadir,32385.0,4.56,16,30.38937,-9.5328,False,False,False,march
1200034419155054404,agadir,Quiet and modern apartment.,Apartment in Agadir,49071.0,4.92,12,30.4325,-9.557,False,True,False,march
911010072536133750,agadir,Beach Appartment close to Marina 2. Floor,Apartment in Agadir,39199.0,4.74,19,30.43226,-9.57279,False,False,False,march
14356218,agadir,Beautiful 3 rooms new modern wifi air conditioning &satellite,Condo in Agadir,39859.0,4.72,131,30.4262,-9.5803,True,False,False,march
1394279931637443645,agadir,Well-equipped apartment.,Apartment in Agadir,38800.0,4.8,10,30.4385,-9.5613,False,True,False,march
690552488969125002,agadir,"Family Comfort:New Apt A, 100Mb Fiber,6min beach",Condo in Agadir,53000.0,4.71,52,30.3976,-9.5775,False,False,False,march
1200174627821439827,agadir,Spacious and family apartment,Apartment in Agadir,36518.0,4.87,38,30.39598,-9.54268,False,True,False,march
736301983387711663,agadir,The perfect riad Al Salam apartement.,Condo in Agadir,50207.0,4.92,71,30.4079,-9.5776,False,True,False,march
1239113287216667939,agadir,Agadir | Quiet Residence | Air conditioning & Fast Wi-Fi,Apartment in Agadir,41082.0,4.93,14,30.3998,-9.5418,False,True,False,march
1012373907827641715,agadir,apartment in residence,Apartment in Agadir,50212.0,4.83,23,30.4403,-9.5635,True,False,False,march
1456868876536632552,agadir,Peaceful & Convenient Apartment in Central Agadir,Apartment in Agadir,47971.0,4.8,10,30.42689134850921,-9.593298419595753,False,False,False,march
1490836265531614200,agadir,"2-Bedroom Apartment in Agadir, Wi-Fi, AC",Apartment in Agadir,46411.0,0.0,0,30.3976,-9.5344,False,False,False,march
1355606620061543282,agadir,"Practical, Functional and Stylish",Apartment in Agadir,34000.0,4.63,19,30.43278161299437,-9.552821190021572,False,False,False,march
1140360508151498502,agadir,golden sands - agadir center,Apartment in Agadir,41082.0,4.8,35,30.3919,-9.5727,False,False,False,march
935504935042960065,agadir,Cozy apartment with pool.,Apartment in Agadir,39770.0,4.68,38,30.43537,-9.55994,False,False,False,march
1484676910834483927,agadir,"Charming  apart hotel 
7 min from Adrar stadium",Condo in Agadir,44506.0,5.0,3,30.4351,-9.5605,False,False,False,march
1453832795886701894,agadir,Apartment in a good location.,Apartment in Agadir,24486.0,4.79,14,30.3899,-9.547,True,False,False,march
1105719225022846844,agadir,Apartment near downtown Agadir,Apartment in Agadir,49071.0,4.71,7,30.4177,-9.5836,False,False,False,march
1210922829711768346,agadir,app 5,Apartment in Agadir,57059.0,4.75,4,30.41613,-9.57837,True,False,False,march
1216730648491326265,agadir,Sunny and very conveniently located!,Apartment in Agadir,37431.0,4.79,24,30.39,-9.57,True,False,False,march
873130935938988978,agadir,Private Chamber in apartment,Room in Agadir,47929.0,4.79,19,30.4396,-9.5601,False,False,False,march
1481400099905018696,agadir,"Great apartment, quiet place",Condo in Agadir,42224.0,5.0,3,30.42359265507092,-9.593152418042056,False,False,False,march
1135540651451584509,agadir,"L'Oranger is close to the beach, 3 minutes from the souk.",Condo in Agadir,39028.0,4.94,32,30.41472,-9.5755,False,True,False,march
1327007139502981987,agadir,Room in a quiet villa,Room in Agadir,39941.0,0.0,0,30.435951526674543,-9.584060180637383,False,False,False,march
1217389859427499618,agadir,Shared happiness: 2 bedrooms + living room & pool,Condo in Agadir,48386.0,4.79,28,30.4357,-9.5625,True,False,False,march
511357,agadir,A TYPICAL MORROCAN HOUSE IN AGADIR,Rooms in Agadir,47725.0,4.67,70,30.3804,-9.5671,True,False,False,march
1211419557878913706,agadir,Authentic Moroccan Touch –The Heart of Agadir,Apartment in Agadir,46788.0,5.0,9,30.41188336453793,-9.5770791659993,True,False,False,march
889937867671480474,agadir,Great studio in the city center,Apartment in Agadir,39941.0,4.71,24,30.4203,-9.5886,False,False,False,march
1168010457534301822,agadir,Lovely apartment for you!,Apartment in Agadir,50896.0,4.6,5,30.4329,-9.5538,False,False,False,march
1443519718823432972,agadir,The VIGIE,Apartment in Agadir,37368.0,0.0,0,30.4331,-9.5596,False,False,False,march
661283638533416463,agadir,"apartment 10 min from the beach, secure",Apartment in Agadir,53635.0,5.0,9,30.39617,-9.56381,True,False,False,march
933114326551412637,agadir,"Spacious Apartment - Close to Beach, Souk and Golf",Condo in Agadir,51809.0,4.8,98,30.3899,-9.5742,False,True,False,march
1056180950239119842,agadir,Penthouse near Marina Beach,Apartment in Agadir,37618.0,4.5,10,30.4318,-9.5738,False,False,False,march
911037228099260527,agadir,Beach Appartment close to Marina 1. Floor,Apartment in Agadir,40997.0,4.9,21,30.43086,-9.5744,False,False,False,march
44641791,agadir,charming apartment-Internet fiber-international TV,Apartment in Agadir,31268.0,4.88,99,30.4124,-9.57191,False,True,False,march
1523259711401163496,agadir,spacious and bringht apartment with balcony,Condo in Agadir,33611.0,0.0,0,30.432,-9.5533,False,False,False,march
783971386687265615,agadir,L'Appart'215 – Agadir Nice 3 rooms – 65 m²,Condo in Agadir,48280.0,4.8,20,30.3988,-9.553,False,True,False,march
1384646591511903777,agadir,Beautiful apartment and quiet building,Condo in Agadir,50098.0,0.0,0,30.41661,-9.59733,False,False,False,march
1457363951898283801,agadir,Beautiful nature walk,Room in Agadir,21146.0,0.0,0,30.4559,-9.629,True,False,False,march
956532443357005946,agadir,"El Houda residence, a peaceful haven nearby",Condo in Agadir,40512.0,4.85,34,30.4009,-9.5399,False,True,False,march
1515422191865946998,agadir,Luxury apartment close to the beach and the souk,Apartment in Agadir,50212.0,0.0,0,30.4003,-9.5716,False,False,False,march
52990168,agadir,"Beautiful apartment
families and married couples only",Apartment in Agadir,43365.0,4.92,25,30.39937,-9.55472,False,True,False,march
1325554624520431015,agadir,One bedroom apartment,Apartment in Agadir,40375.0,5.0,8,30.40008,-9.57133,False,True,False,march
946535075665034803,agadir,Alloooo Youssef,Condo in Agadir,45647.0,4.9,31,30.4318,-9.5586,False,True,False,march
952811035920839362,agadir,"Air-conditioned F3 apartment, ideal for families & friends",Apartment in Agadir,28986.0,4.4,10,30.43694,-9.55035,False,False,False,march
1324660547383601247,agadir,Nova Residence,Condo in Agadir,46720.0,0.0,0,30.40053,-9.55508,False,False,False,march
1294048599669586539,agadir,Your Cosy home (shared sunny Rooftop),Apartment in Agadir,42349.0,4.79,19,30.440897873411068,-9.564388044213617,False,False,False,march
911751984067495961,agadir,Beautiful house in the center in a very quiet area,Home in Agadir,49071.0,5.0,4,30.3986,-9.5771,False,False,False,march
1473171889205987081,agadir,Charming apartment in Agadir,Apartment in Agadir,47016.0,0.0,0,30.4361,-9.5511,True,False,False,march
561820122531542198,agadir,Family apartment 5 km from the beach and city center,Apartment in Agadir,37367.0,4.73,41,30.4251,-9.56209,True,False,False,march
35600820,agadir,Modern Appartment City Center calm & cosy WIFI,Condo in Agadir,33013.0,4.86,70,30.41875,-9.56148,False,True,False,march
1470938328862722900,agadir,Quiet stay near the beach,Apartment in Agadir,43595.0,5.0,5,30.4128,-9.5676,False,True,False,march
810692339060891430,agadir,DS Spacious and quiet apartment.,Apartment in Agadir,46788.0,4.89,36,30.42931,-9.55681,False,True,False,march
39919358,agadir,Logement Agadir,Apartment in Agadir,42350.0,4.83,103,30.40763,-9.55786,False,True,False,march
1439006301321983276,agadir,Charming accommodation with Secret Fruit Garden,Apartment in Agadir,55683.0,0.0,0,30.418,-9.5606,False,False,False,march
925241508739051959,agadir,modern and traditional apartment,Apartment in Agadir,43595.0,0.0,0,30.4377,-9.5647,False,False,False,march
1454355905685532324,agadir,The best break,Apartment in Agadir,36100.0,0.0,0,30.4508,-9.6272,False,False,False,march
1261749625256657400,agadir,Cristal House,Apartment in Agadir,45647.0,4.78,9,30.398300775739266,-9.554977540105632,False,False,False,march
1224669593372122131,agadir,Appartement,Apartment in Agadir,36518.0,4.79,19,30.4398,-9.5547,False,True,False,march
14495866,agadir,3 new rooms with wifi and satellite,Condo in Agadir,43596.0,4.71,230,30.4257,-9.5816,True,False,False,march
1083310989466127631,agadir,Charming Studio with Pool and City View,Apartment in Agadir,42918.0,5.0,5,30.43504,-9.56303,True,False,False,march
1329082403127323282,agadir,"LARGE Central Agadir Appartment (Wifi,Netflix,AC)",Apartment in Agadir,42201.0,4.88,8,30.392214930522805,-9.543732912144511,False,True,False,march
1275407142775468758,agadir,nuage d'amour,Apartment in Agadir,44518.0,0.0,0,30.3974,-9.5509,False,False,False,march
1284695592894546357,agadir,The Cosy Place,Condo in Agadir,43821.0,4.62,13,30.4331,-9.5536,False,False,False,march
1399431903614447005,agadir,Close to Agadir Bay Beach Appartment,Condo in Agadir,49592.0,0.0,0,30.40193,-9.55072,False,False,False,march
853058592920187376,agadir,Apartment with a balcony Mountain view,Condo in Agadir,50212.0,5.0,4,30.4397,-9.56,False,False,False,march
7538420,agadir,"Air-conditioned apartment, wifi, calm, pleasant, close to all amenities",Apartment in Agadir,25162.0,4.62,86,30.41917,-9.56761,False,False,False,march
802400,agadir,a beautiful bedroom in a house,Rooms in Agadir,41733.0,4.57,14,30.38134,-9.56825,True,False,False,march
1376848553085232687,agadir,Wonderful and calm,Apartment in Agadir,50786.0,0.0,0,30.4332,-9.5541,False,False,False,march
1470982192431018366,agadir,"Modern, quiet and well located",Apartment in Agadir,49823.0,0.0,0,30.4126,-9.5676,False,False,False,march
42284020,agadir,Comfy & Cosy Apartment!,Condo in Agadir,43365.0,4.77,47,30.43368,-9.5531,False,False,False,march
1206306100337673812,agadir,"the comfortable refuge @ quad, camels,surf @",Apartment in Agadir,29000.0,0.0,0,30.4585,-9.6298,False,False,False,march
1309540576531827785,casablanca,"Breton Farm • Terrace • Gym, fiber & IPTV",Apartment in Casablanca,50190.0,4.97,37,33.5649,-7.6468,False,True,True,march
1426670329566192550,casablanca,Appart Premium • 550 m Mohammed V Stadium • CAN,Apartment in El Maarif district,48980.0,5.0,17,33.5784,-7.6484,False,True,True,march
1555092348925778766,casablanca,"Dar Joudia, Comfort, charm and central location",Apartment in Casablanca,43462.0,0.0,0,33.5707,-7.6262,True,False,False,march
1500262188673253861,casablanca,Modern studio – Burgundy near Hassan II Mosque,Apartment in بالفرنسية,51800.0,5.0,31,33.60056552825738,-7.636025613379532,False,True,True,march
1252875089043394865,casablanca,Modern & Cozy 1BR | Adam Bourgogne | Amenities + Parking,Condo in ANFA,53110.0,4.92,37,33.5934,-7.6492,False,True,False,march
1445086790099000912,casablanca,Cozy studio in Burgundy – close to Corniche & center,Apartment in بالفرنسية,51353.0,5.0,5,33.6002,-7.6339,True,False,False,march
1126551301482613703,casablanca,[City center ]Luxury apartment,Apartment in Casablanca,44400.0,4.94,32,33.5784,-7.5981,True,False,False,march
1451532217456938051,casablanca,Cozy small and new apartment in Maarif | Parking,Apartment in El Maarif district,49000.0,4.93,14,33.5751,-7.641,False,True,False,march
1400061544911014586,casablanca,Chic & central - breathtaking view 2 steps from the Tram,Apartment in El Maarif district,52564.0,5.0,17,33.569172849459754,-7.637129042408618,False,True,False,march
35336497,casablanca,High-floor loft studio with unobstructed view 1,Loft in Casablanca,40169.0,4.76,432,33.59024,-7.63501,False,False,False,march
1506562924902674204,casablanca,Beautiful bright apartment with large terrace,Apartment in Casablanca,47929.0,5.0,3,33.58957410230529,-7.606884245328178,False,False,False,march
1551650103314967284,casablanca,Refined Stay in a Modern and Luxurious Loft,Apartment in Casablanca,55181.0,0.0,0,33.58040626721674,-7.648127338128555,True,False,False,march
1556797593004492672,casablanca,Cozy apartment 4 min from the Mohammed V stadium,Apartment in Casablanca,54647.0,0.0,0,33.5704,-7.6435,True,False,False,march
31408845,casablanca,Studio with a sunny terrace near the old medina,Apartment in بالفرنسية,41519.0,4.72,430,33.59485,-7.62784,False,False,False,march
843359634015882971,casablanca,Central location for a great stay.,Apartment in Casablanca,51816.0,4.95,61,33.56323,-7.64714,False,True,False,march
1057752025592538626,casablanca,"Premium, Cozy, Chic, Stylish, and Fully Equipped",Apartment in ANFA,53444.0,4.92,88,33.59361,-7.65251,True,False,False,march
1310219519214773480,casablanca,"Breton Farm • 1BR • Fiber, Gym & Parking",Apartment in Casablanca,51940.0,4.98,40,33.56478417844482,-7.647733335349495,False,True,True,march
1181776996106596917,casablanca,Lux and confort- Indoor Garage -Tramway- Terrace,Apartment in Casablanca,46000.0,4.87,82,33.5784,-7.5981,True,False,False,march
1329901408781519170,casablanca,Bright 1BR • Terrace • Fibre • Private garage,Apartment in El Maarif district,51980.0,4.77,30,33.5786,-7.6468,True,False,False,march
1089983976526543916,casablanca,Charming 1 Bed Casablanca Retreat W/ Free Parking,Apartment in El Maarif district,45228.0,4.95,56,33.5792,-7.64437,False,True,False,march
1410106905576158342,casablanca,Modern Flat • 1min to Sea • Prime Location,Apartment in ANFA,48400.0,4.91,33,33.602822345332065,-7.653103216616172,True,False,False,march
1385169876235429238,casablanca,Central and Chic Location in the Heart of Casablanca,Apartment in El Maarif district,43730.0,5.0,9,33.5715,-7.6216,False,True,False,march
1549354438715413077,casablanca,Apartment in the city center close to the sea.,Condo in Casablanca,49299.0,0.0,0,33.5972,-7.636,True,False,False,march
1452184167216185008,casablanca,Sunny & Spacious Studio < PALM District >,Apartment in El Maarif district,48774.0,4.95,20,33.5779,-7.6304,False,True,False,march
1481335391425446763,casablanca,Modern & Cozy Studio-Twin Maârif,Apartment in El Maarif district,50000.0,4.9,40,33.579291655834226,-7.63810384151493,False,True,True,march
34801828,casablanca,"Loft studio with unobstructed view, high floor 2",Loft in Casablanca,45419.0,4.72,513,33.59113,-7.63276,False,False,False,march
1159288131192077850,casablanca,Luxury studio center Abdelmoumen-1min tram -w/view,Apartment in El Maarif district,45989.0,5.0,185,33.57759,-7.62383,False,True,True,march
1475269694397113898,casablanca,Bohemian Escape – Sunny Atmosphere,Apartment in El Maarif district,44962.0,4.93,28,33.58253,-7.63709,False,True,False,march
1211537954815018296,casablanca,Studio 5min away from the beach/Gym/Garden/200Mbps,Apartment in ANFA,49340.0,4.89,47,33.59705,-7.65196,False,True,False,march
1463216350159607907,casablanca,Luxury Loft Studio in Burgundy Residence Adam,Apartment in ANFA,40763.0,5.0,8,33.5934,-7.6492,False,True,False,march
1456144858738447133,casablanca,Magnífico apartamento.,Apartment in بيلفيدير,56051.0,5.0,9,33.5979,-7.5882,False,True,False,march
1432624425575657459,casablanca,Modern & cozy 1BR à5minCasaport+Fibre opt /Netflix,Apartment in Casablanca,49400.0,4.89,37,33.59976,-7.58824,True,False,False,march
1386374379217887963,casablanca,Cozy & Chic Studio - with private secure parking,Apartment in ANFA,46560.0,4.95,57,33.6015,-7.648,False,True,True,march
1450790342704231049,casablanca,Pleasant & Chic Studio《 Courtyard and Rooftop 》,Apartment in El Maarif district,49093.0,5.0,19,33.5664,-7.6235,False,True,True,march
986879059334834085,casablanca,Stunning terrace| Maarif | Cozy & Peaceful,Apartment in El Maarif district,53960.0,4.77,66,33.57775,-7.64255,True,False,False,march
1313746693899662943,casablanca,Cozy & Luxury Stay near Maârif_3,Apartment in El Maarif district,55324.0,4.97,37,33.57117294653804,-7.638686006857362,False,True,True,march
1450543023419957367,casablanca,The Supreme Chic,Apartment in Casablanca,49620.0,5.0,8,33.5491,-7.6741,False,True,False,march
1503555927027527370,casablanca,Bright & Stylish Flat + Fast Fiber,Apartment in واحة,53191.0,4.64,11,33.5576,-7.6343,False,False,False,march
1467256364124236365,casablanca,"Small nest in a good location, quiet",Apartment in Oulad Abbou,50180.0,4.5,8,33.575739155975825,-7.609030079051647,False,False,False,march
1545873817013209126,casablanca,Cocoon 5 min from the sea and the mosque,Apartment in Casablanca,45419.0,4.83,6,33.59899,-7.63504,True,False,False,march
1350191193687762712,casablanca,LH Suites: Chic Studio – Golden Triangle,Apartment in ANFA,48386.0,4.92,60,33.59509540028348,-7.645977320166048,False,True,False,march
1382632373495972468,casablanca,Luxurious & Central Location in the Heart of Casa,Apartment in El Maarif district,50235.0,4.86,14,33.5753,-7.617,True,False,False,march
1547323526348877282,casablanca,Cozy Studio in Palmier – Comfort and Quiet,Apartment in Casablanca,49299.0,0.0,0,33.5799,-7.6267,False,False,False,march
1368091937477787565,casablanca,Cozy-New: WiFi Parking close stadium medV CAN2025,Apartment in El Maarif district,57808.0,5.0,19,33.56826973327566,-7.638992922466207,False,True,True,march
43608065,casablanca,⭐️NEW&COZY APPARTMENT⭐️IN THE HEART OF TRIANGLE D’OR,Apartment in ANFA,51353.0,4.85,181,33.59259,-7.63883,False,True,False,march
978102910088922649,casablanca,"Business stay – sea & port view, 5 min Casa-Port",Apartment in Casablanca,50035.0,4.85,20,33.6009,-7.5888,False,False,False,march
1014584038466069928,casablanca,Casablanca Cosy Terrasse Gauthier,Apartment in بالفرنسية,50570.0,4.95,63,33.59235,-7.63515,False,True,True,march
1363329445938592670,casablanca,Beautiful Terrace • Quiet Corner • Designer Flat,Apartment in El Maarif district,46880.0,4.92,37,33.58415168139741,-7.635602630636528,False,True,False,march
1387088463565982099,casablanca,Casa Sunshine Serviced Apartment N02,Apartment in ANFA,43479.0,4.56,16,33.5975,-7.6433,False,False,False,march
1356572674772062474,casablanca,New Quiet Studio in the city center 1 min from the tram,Apartment in El Maarif district,45875.0,4.94,86,33.5678,-7.619,False,True,False,march
1415162156471118843,casablanca,The cocoon,Apartment in El Maarif district,46104.0,4.96,25,33.5567,-7.6259,False,True,False,march
34492291,casablanca,"Loft studio with unobstructed view, high floor 4",Loft in Casablanca,44506.0,4.78,570,33.58995,-7.6339,False,False,False,march
950244058633904404,casablanca,The Sunny 15,Condo in El Maarif district,50212.0,4.89,73,33.56692,-7.63863,True,False,False,march
886396973584610628,casablanca,Studio with terrace and private parking,Apartment in ANFA,42224.0,4.87,70,33.5971,-7.6397,True,False,False,march
1360709271334519855,casablanca,Chic T2 tt confort - AC-Wifi- City Center- Tramway,Apartment in El Maarif district,51125.0,4.84,19,33.5692,-7.6424,False,True,False,march
1497125822828045636,casablanca,1 Min from CFC • Bright Flat • Open Skyline View,Apartment in Casablanca,47260.0,5.0,9,33.5642,-7.6467,False,True,False,march
1326837067940366320,casablanca,Bright & Cozy Apt with City View,Apartment in El Maarif district,46423.0,4.74,23,33.5776,-7.6245,False,False,False,march
1522554766336356526,casablanca,L'osmo - 1 BR - 2m from CFC,Apartment in Casablanca,52000.0,4.86,14,33.5545,-7.6465,False,True,False,march
952029072472359614,casablanca,Relaxation and Comfort in the City,Apartment in Casablanca,42338.0,4.92,168,33.5979,-7.6139,False,True,True,march
24492402,casablanca,Dar Sekina,Room in ANFA,43595.0,4.93,175,33.6014,-7.6543,False,True,False,march
1060877234428970833,casablanca,"Premium, spacious, fully equipped, and comfortable",Condo in ANFA,53976.0,4.86,37,33.59463,-7.6517,False,True,False,march
1542781216743556718,casablanca,Cozy Maarif 107 - Great location with balcony,Apartment in Casablanca,47704.0,0.0,0,33.5834,-7.6347,True,False,False,march
1332704685322613842,casablanca,Urban Studio 200 m from the Tramway,Apartment in El Maarif district,47473.0,5.0,3,33.5707,-7.6176,False,False,False,march
1045511197016268908,casablanca,Modern central apartment | Free gym| Free Parking,Apartment in El Maarif district,50880.0,4.88,77,33.56507,-7.64554,True,False,False,march
1456838775028509168,casablanca,Terrace & Garden • Close To Hassan II • Cozy Flat,Apartment in بالفرنسية,51560.0,4.87,15,33.59749,-7.63549,True,False,False,march
1210348726160781900,casablanca,Sparkling accommodation,Apartment in El Maarif district,47929.0,4.88,67,33.55582,-7.6227,False,True,False,march
1423124415629873714,casablanca,Cozy Interior • Sunny Balcony • Central Retreat,Apartment in El Maarif district,44640.0,4.8,25,33.5734,-7.6454,False,True,False,march
1060206206573070694,casablanca,Trendy LHP 19 - Tramway & High Speed Internet,Apartment in El Maarif district,57094.0,5.0,39,33.5704,-7.6155,False,True,False,march
1334299954429637727,casablanca,Charming Apartment • Private Terrace & Hammock,Apartment in El Maarif district,49320.0,4.84,43,33.57908883695574,-7.6489083506506175,False,True,False,march
1399298492763330566,casablanca,Chic – comfort – heart of the Les Princesses neighborhood,Apartment in El Maarif district,49847.0,5.0,10,33.5768,-7.6494,False,True,False,march
1557909701934160568,casablanca,"Studio modern & chic at Anfa Park, Casablanca",Apartment in Casablanca,55202.0,0.0,0,33.56705997448375,-7.6548881353479805,False,False,False,march
1462996136014060900,casablanca,Studio moderne,Apartment in El Maarif district,42178.0,4.67,24,33.569475292877684,-7.616321896754199,True,False,False,march
1538491769152284429,casablanca,"Calm at Oasis – Terrace, Parking and Fiber",Apartment in Casablanca,52862.0,0.0,0,33.55176619512672,-7.63667640311409,False,False,False,march
1534260222457285493,casablanca,"Beautiful Roches Noires studio, 2 stations nearby",Apartment in Casablanca,51741.0,0.0,0,33.5996,-7.5767,False,False,False,march
1340065010165369528,casablanca,Cozy Flat • Central Casablanca • Balcony,Apartment in El Maarif district,51920.0,4.97,38,33.57775824506126,-7.636724169286924,False,True,True,march
1391767005220008863,casablanca,Chic apartment 2 minutes from the tram,Apartment in Casablanca,40284.0,4.9,29,33.58939653968278,-7.606902323711482,False,False,False,march
1252166159106621942,casablanca,Majorelle balcony | Tramway | Free parking,Apartment in El Maarif district,50212.0,4.96,23,33.5697,-7.6194,False,True,False,march
1252882404284826612,casablanca,Modern&Cosy 1BR| Belvédère | Balcony + Parking,Condo in بيلفيدير,53146.0,4.97,30,33.5967,-7.5942,False,True,False,march
1542758407349999973,casablanca,Cozy Maarif 106 - Great location - Twin center,Apartment in Casablanca,47683.0,0.0,0,33.5832,-7.6346,True,False,False,march
1341216449656856688,casablanca,Stylish Stay Luxury Condo Casa City Center Romance,Apartment in Aïn Sebaâ,45191.0,5.0,29,33.5988,-7.5761,False,True,False,march
1358822047708595501,casablanca,Chic Studio & Central Balcony Parking Fiber Maarif,Apartment in El Maarif district,51536.0,5.0,9,33.5792,-7.6486,False,True,False,march
1502422261670873777,casablanca,Elegant Retreat | Cozy Chic Studio in Casablanca,Apartment in El Maarif district,50936.0,5.0,6,33.5767,-7.6484,True,False,False,march
1462583825987825564,casablanca,Tidy Park Avenue - Tram & Train Station,Apartment in بيلفيدير,52030.0,5.0,13,33.586,-7.5971,False,True,False,march
1345211611060011400,casablanca,Appartement Casa Finance City,Apartment in Casablanca,49299.0,4.95,19,33.5508,-7.6452,False,True,False,march
1342704295629129821,casablanca,Cozy studio in the heart of the city.,Apartment in Casablanca,47929.0,4.92,88,33.6003,-7.589,False,True,True,march
50932035,casablanca,Le Cosy central living,Apartment in Casablanca,48614.0,4.91,88,33.56512,-7.64596,False,True,True,march
1280486296656564112,casablanca,"Cozy, quiet, and fully equipped, near sea.",Apartment in ANFA,57754.0,4.94,35,33.59405,-7.65377,False,True,False,march
1534102830951331393,casablanca,Cute & Comfy 07 - Train Station & Garage,Apartment in Casablanca,46994.0,5.0,4,33.5965,-7.5945,True,False,False,march
1360922434265296915,casablanca,"Charming and central studio, with terrace",Apartment in Oulad Abbou,46332.0,4.94,18,33.58401251332208,-7.611926215044126,False,True,False,march
41399093,casablanca,Confortable & Modern Apartment,Apartment in Casablanca,46415.0,4.8,379,33.56491,-7.64686,True,False,False,march
1486571729433386678,casablanca,C071.6. Modern flat downtown,Apartment in El Maarif district,50260.0,5.0,8,33.5788,-7.6287,False,True,False,march
1116515642283589540,casablanca,Central Sunny Apartment | Beautiful Terrace,Apartment in El Maarif district,47131.0,4.87,53,33.58314,-7.63834,False,True,False,march
840544413718800097,casablanca,Modern Comfort & Quiet Charm – Heart of Maarif#305,Apartment in El Maarif district,48577.0,4.88,58,33.57865,-7.64272,False,True,False,march
693436723631748541,casablanca,Modern&Cosy 1BR| Belvedere| Balcony + Parking,Apartment in بيلفيدير,50301.0,4.9,229,33.5969,-7.5949,False,True,False,march
1361638012935869291,casablanca,Soho Apartment,Apartment in El Maarif district,50326.0,4.79,24,33.5685,-7.6242,False,True,False,march
968907940048864495,casablanca,Quiet & Cozy Studio with Terrace in the Heart of Casa,Apartment in El Maarif district,49664.0,5.0,36,33.57476015955567,-7.647609085108326,False,True,True,march
1243295261100474139,casablanca,Beautiful apartment in the heart of Casablanca,Apartment in El Maarif district,51809.0,4.91,46,33.5795,-7.628,False,True,False,march
1324608147395659788,casablanca,Designer Flat • Quiet Corner • Central Location,Apartment in El Maarif district,45040.0,5.0,43,33.5782,-7.6374,False,True,False,march
1155941320677225959,casablanca,the sublime,Apartment in El Maarif district,47929.0,4.8,61,33.55711,-7.62636,False,True,False,march
1135472067216667565,casablanca,Modern & Cozy 1BR | Adam Bourgogne | Balcony + Parking,Apartment in ANFA,52996.0,4.98,44,33.5959,-7.6522,False,True,True,march
1437528641882802177,casablanca,Maarif Cozy Studio & Parking,Apartment in El Maarif district,43536.0,4.94,32,33.5714,-7.6436,False,True,False,march
774676791392345303,casablanca,Modern&Cosy 1BR |Anfa-Ziraoui|FastWifi+Parking,Apartment in بالفرنسية,51796.0,4.93,134,33.5949,-7.6333,False,True,False,march
1348537245205297211,casablanca,Modern and Chic Apartment,Apartment in Casablanca,57846.0,4.97,36,33.5897,-7.606,False,True,True,march
1051569125097517236,casablanca,Modern&Cosy 1BR|5min to Maarif|FastWifi+Amenities,Apartment in El Maarif district,51159.0,4.96,75,33.5788,-7.6289,False,True,False,march
1348759060415153814,casablanca,Modern apartment in the heart of Casa,Apartment in ANFA,47245.0,4.89,18,33.59826,-7.63944,False,True,False,march
1324803759969537386,casablanca,Cozy Flat • Central Casablanca • Balcony,Apartment in El Maarif district,51880.0,4.94,31,33.5787,-7.6494,False,True,False,march
1406451039864058454,casablanca,Studio with Exceptional View,Apartment in El Maarif district,48158.0,4.91,22,33.5863,-7.6483,False,True,False,march
1488439773588560142,casablanca,Lalla Mina Suite with large Terrace - Dar EL BAHIA,Guest suite in Casablanca,55304.0,0.0,0,33.5936,-7.6204,True,False,False,march
1558009664052965724,casablanca,Modern clean sea-view flat in Casablanca,Apartment in Casablanca,57873.0,0.0,0,33.5971,-7.58655,False,False,False,march
939984367272239457,casablanca,Modern & Cozy 1BR | Burgundy | Terrace + Parking,Apartment in ANFA,51330.0,4.83,76,33.5993,-7.6458,False,True,False,march
1020902593444141528,casablanca,Beautiful apartment - Beautiful Garden Terrace + Fiber,Apartment in El Maarif district,54687.0,4.93,68,33.5793,-7.6293,False,True,False,march
1465382391142794441,casablanca,C071. Cosy apartment Palmiers,Apartment in El Maarif district,43420.0,4.8,10,33.5778,-7.6286,True,False,False,march
1470834462197256341,casablanca,Luxurious & Central to the Princesses,Apartment in El Maarif district,53309.0,5.0,4,33.5769114509705,-7.644616208014585,True,False,False,march
860755154030442098,casablanca,Modern&Cosy 1BR| 5min from CFC | Balcony+Parking,Apartment in Casablanca,52996.0,4.89,172,33.5645,-7.6469,False,True,False,march
52006468,casablanca,Stylish & Cozy Apartment,Condo in Casablanca,46415.0,4.82,223,33.56334,-7.64757,False,True,False,march
1538472621670502137,casablanca,"Spacious, Quiet Apartment / Parking + Fiber",Apartment in Casablanca,50294.0,0.0,0,33.55255936120402,-7.643846643207188,False,False,False,march
1522595787204381813,casablanca,Modern Central Apartment with fiber WiFi balcony,Apartment in Casablanca,48044.0,0.0,0,33.5745,-7.617,True,False,False,march
1555676237679767602,casablanca,"Studio in front of Cheikh Khalifa Hospital, 5 min CFC",Apartment in Casablanca,56997.0,0.0,0,33.54986,-7.67079,True,False,False,march
10285587,casablanca,Green setting -4- Business District-Jasmine,Room in Aïn Chock,52314.0,4.98,50,33.53989,-7.64486,False,True,True,march
837743936035679454,casablanca,Chic & Central Bright Spot Breton Farm Casa,Apartment in Casablanca,52564.0,4.9,58,33.5644,-7.647,False,True,False,march
611710566773150934,casablanca,Beautiful studio in the center of casa,Apartment in بيلفيدير,43846.0,4.88,210,33.5857,-7.5966,False,True,False,march
53586161,casablanca,"Modern & Cosy 1BR |Fast WiFi, Free Parking Ziraoui",Condo in بالفرنسية,51024.0,4.91,195,33.5947,-7.6334,False,True,False,march
1135349747041086522,casablanca,Urbana - Luxurious 1BR - 5 Stars Experience,Apartment in El Maarif district,51581.0,4.83,77,33.5778,-7.6484,True,False,False,march
1528236858503873475,casablanca,Chic Studio in the Heart of Princesses – Guaranteed Quiet,Apartment in Casablanca,54000.0,0.0,0,33.5774,-7.6455,False,False,False,march
917128612949425143,casablanca,Casablanca Beautiful & Tranquil Family apartment,Apartment in Casablanca,52084.0,4.72,118,33.5362,-7.6724,True,False,False,march
40400675,casablanca,A cute Studio near the old Medina ( walkable ),Apartment in بالفرنسية,44301.0,4.54,179,33.596725223628816,-7.627476144179606,False,False,False,march
1487691819665925980,casablanca,C027. Cosy apartment downtown,Apartment in ANFA,49360.0,4.6,5,33.59928,-7.64894,True,False,False,march
1191994481165836765,casablanca,"Modern&Cosy 1BR|Palmiers| Gym,Wifi,All Amenities",Apartment in El Maarif district,51374.0,5.0,35,33.5816,-7.6265,False,True,False,march
1202434636751105068,casablanca,New luxury central apartment,Apartment in ANFA,52494.0,5.0,12,33.599,-7.6487,False,True,False,march
1470205548292318887,casablanca,Elegant 1BR | Near Finance City,Apartment in Casablanca,48574.0,4.64,45,33.56312951450354,-7.648057850841314,True,False,False,march
1198831639963822820,casablanca,The radiant one,Apartment in El Maarif district,50326.0,4.81,52,33.5552,-7.6238,False,True,False,march
1555568010150409264,casablanca,"Dar Nabil, Comfort, charm and perfect location",Apartment in Casablanca,54816.0,0.0,0,33.5757,-7.6464,True,False,False,march
1435381445241880130,casablanca,J03. Typical Moroccan Apartment,Apartment in بيلفيدير,48386.0,5.0,10,33.5939,-7.5996,False,True,False,march
38636218,casablanca,Small cozy nest in the heart of Casablanca,Apartment in Casablanca,46104.0,4.81,184,33.59831,-7.61543,False,False,False,march
1373818464157880506,casablanca,Exceptional studio in the heart of the city with balcony,Apartment in El Maarif district,54212.0,4.82,11,33.5691,-7.6423,True,False,False,march
1512403400389117728,casablanca,Apartment equipped with balcony - one double bedroom,Condo in بيلفيدير,47293.0,5.0,5,33.5904,-7.602,False,True,True,march
1492280412719510185,casablanca,Superb LHP 32 - Tramway & Parking,Apartment in El Maarif district,57345.0,5.0,6,33.56977232329202,-7.614502869027941,True,False,False,march
1513722378011427615,casablanca,Charming & Quiet near Stade d'Honneur,Apartment in El Maarif district,42803.0,0.0,0,33.57633787604649,-7.649800070300185,True,False,False,march
1320281779773915679,casablanca,Splendid LHP 39 - Tramway & High Speed Internet,Apartment in El Maarif district,57379.0,4.95,21,33.56942,-7.61452,True,False,False,march
1439674418701103702,casablanca,GoodMove | Peaceful 1BR • Central Casablanca,Apartment in ANFA,48158.0,4.92,12,33.5993,-7.6412,False,True,False,march
847677298775513973,casablanca,Very nice apartment 5' from the Sea #14,Apartment in بالفرنسية,48577.0,4.73,80,33.60204,-7.63328,False,False,False,march
880196107795374617,casablanca,Brand New Cosy Studio,Apartment in El Maarif district,49071.0,5.0,24,33.57936,-7.64727,False,True,True,march
1097092874738095245,casablanca,C023. Cosy cocon Racine,Apartment in ANFA,49680.0,4.85,62,33.5942,-7.6413,False,True,False,march
841048134258282326,casablanca,Central & Stylish Apartment in Maarif  #306,Apartment in El Maarif district,51068.0,4.91,75,33.58061,-7.64239,False,True,False,march
1552879424479125665,casablanca,Luxury and peaceful studio,Apartment in Casablanca,46566.0,0.0,0,33.5802,-7.642,False,False,False,march
1444779639917702122,casablanca,Sunny hypercenter | Train and tram,Condo in El Maarif district,48203.0,4.82,11,33.5569,-7.625,True,False,False,march
1135460678781850865,casablanca,Modern & Cozy 1BR | Adam-Bourgogne | Balcony + Parking,Apartment in ANFA,52724.0,4.92,37,33.5959,-7.6522,False,True,False,march
1400612968179838703,casablanca,Bright 1-BR • Balcony & Parking • Maarif,Apartment in El Maarif district,50900.0,4.83,18,33.57708487084734,-7.650325973148855,True,False,False,march
1421820053100579969,casablanca,"Zen Home 42
apparently new",Apartment in ANFA,43596.0,4.87,15,33.5972,-7.6433,False,False,False,march
1350625109956291188,casablanca,Fiber Optic & Air Conditioned - Cozy Cloud,Apartment in Casablanca,49741.0,4.93,41,33.58531909753792,-7.617169790645565,False,True,False,march
53085276,casablanca,Panoramic CosySunny StudioGauthier terrace with AC,Apartment in بالفرنسية,51317.0,4.76,113,33.59335,-7.63597,True,False,False,march
1142821941715436066,casablanca,Modern&Cosy 1BR| Palmiers| Gym & All Amenities,Condo in El Maarif district,53205.0,5.0,57,33.5817,-7.6267,False,True,False,march
1260257065103818806,casablanca,Bright and spacious studio,Apartment in El Maarif district,51581.0,4.94,33,33.5643,-7.6279,False,True,True,march
1433422269385585458,casablanca,J01. Floral elegance & comfort,Apartment in El Maarif district,50942.0,5.0,13,33.5703,-7.6156,False,True,True,march
1471696606282736254,casablanca,"Scandi | 1BR in Princesses, Maarif, Central Casa",Apartment in El Maarif district,50000.0,5.0,16,33.578,-7.647,False,True,False,march
10282594,casablanca,Green Setting – 2 – Business District – Hibiscus,Room in Aïn Chock,51068.0,4.98,60,33.53842851025296,-7.645280780657172,False,True,False,march
1088247401507273566,casablanca,C070. Cosy et luxueux cocon Casa,Apartment in El Maarif district,48840.0,4.8,49,33.5788,-7.6293,True,False,False,march
1496635319147391456,casablanca,Cosy Zola - Garage & Optic Fiber,Apartment in بيلفيدير,51986.0,4.88,8,33.5968,-7.5936,False,True,False,march
1065247801754578779,casablanca,Sweet & Neat All Stars - Central Location,Apartment in El Maarif district,54611.0,4.93,46,33.5745,-7.6169,False,True,False,march
1545888059142037414,casablanca,Cosy 1BR - Riviera/Bd Ghandi 5 Stars experience,Apartment in Casablanca,51581.0,0.0,0,33.5692,-7.6415,True,False,False,march
846307229953301354,casablanca,Modern Apartment close to the sea  #13,Apartment in بالفرنسية,51068.0,4.74,78,33.60096,-7.63158,False,False,False,march
833984342029737439,casablanca,Central And Modern Flat 15'walk From Beach #08,Apartment in ANFA,51916.0,4.6,70,33.60188,-7.65271,False,False,False,march
1054999110874662311,casablanca,Cozy studio in downtown Casablanca,Apartment in El Maarif district,46788.0,4.88,43,33.57096,-7.62107,True,False,False,march
1500928205465054448,casablanca,Oasis Casablanca – Cozy studio near center & CFC,Apartment in واحة,49527.0,4.83,6,33.5519,-7.6436,True,False,False,march
1389900836536836310,casablanca,The chic escape,Condo in بالفرنسية,58249.0,4.93,30,33.593,-7.6358,False,True,True,march
847716802003034211,casablanca,"Stunning view, colonial apartment #17",Apartment in Casablanca,48209.0,4.67,84,33.59376,-7.62513,False,False,False,march
1465395850808796041,casablanca,C071.1 Cosy apartment Palmiers,Apartment in El Maarif district,45020.0,4.33,6,33.5778,-7.6286,True,False,False,march
1404398398289813022,casablanca,"Stylish Modern Studio – Les Princesses, Parking",Apartment in El Maarif district,52083.0,4.92,12,33.5773,-7.6488,False,True,False,march
1004314676265029363,casablanca,C067. Cozy apartment,Apartment in El Maarif district,52100.0,4.75,55,33.58355,-7.63621,True,False,False,march
1521643473332820663,casablanca,The Sun Loft B Living,Apartment in Casablanca,52820.0,5.0,16,33.5643,-7.6469,False,True,False,march
42633401,casablanca,Cocooning nice beautiful studio balcony Maarif AC,Apartment in El Maarif district,46834.0,4.92,252,33.5752,-7.6472,False,True,False,march
1337738059003025998,casablanca,C064. Light & Central flat *,Apartment in El Maarif district,50000.0,4.73,15,33.58437245577865,-7.639598310292719,True,False,False,march
1522473988475736055,casablanca,"Luxury Oasis Apartment, Cozy and Elegant",Apartment in Casablanca,48956.0,5.0,5,33.55243897178024,-7.631678474963249,False,True,False,march
1198866357896559996,casablanca,Bright home,Apartment in El Maarif district,49299.0,4.69,68,33.5552,-7.6238,True,False,False,march
844243766912155588,casablanca,Calm and nice Studio central #10,Apartment in ANFA,49823.0,4.77,65,33.59374,-7.64202,False,False,False,march
836851714898909195,casablanca,Bright and Fancy Apartment #27,Apartment in El Maarif district,51068.0,4.76,78,33.57755,-7.64704,False,False,False,march
1280976841122131619,casablanca,"Charming Apartment in the Center, Not Overlooked",Apartment in El Maarif district,45647.0,4.94,18,33.57147834673125,-7.63780878038548,False,True,False,march
40922983,casablanca,Modern & Cosy Belvedere ⭐️ Tramway & Train Station,Apartment in بيلفيدير,49413.0,4.85,132,33.59463,-7.58677,False,True,False,march
939978814037867280,casablanca,Modern & Cozy 1BR | Burgundy | Terrace & Parking,Apartment in ANFA,52359.0,4.93,73,33.59972,-7.64621,False,True,False,march
1155959085079247665,casablanca,Cozy Accommodation,Apartment in El Maarif district,48386.0,4.79,67,33.55771,-7.62541,True,False,False,march
1329616134843032250,casablanca,Refined Family Apartment in Ain Sebaa,Apartment in Aïn Sebaâ,50000.0,4.89,9,33.5998,-7.536,False,False,False,march
1373805182084444518,casablanca,Nugget in central Casablanca,Apartment in El Maarif district,53635.0,4.74,19,33.5798,-7.6421,False,True,False,march
1513222112036447895,casablanca,1 BDR in Oasis/100mbps wifi/2 min from gare oasis.,Apartment in El Maarif district,50000.0,5.0,3,33.56097975313988,-7.628981605206057,True,False,False,march
1284887413629198678,casablanca,Downtown Luxury Stay CIL - Anfapark,Apartment in Casablanca,48614.0,5.0,18,33.5711,-7.6523,False,True,False,march
1331408717384205624,casablanca,CAN 2025 • Private rooftop + bathtub • 100 m stadium,Apartment in El Maarif district,49767.0,5.0,5,33.58012610811845,-7.643173915794561,False,True,False,march
1416653721833348217,casablanca,Large elegant studio Casa_centre,Apartment in Casablanca,47131.0,0.0,0,33.585,-7.6123,True,False,False,march
1177739381808120264,casablanca,Green Retreat | Private Terrace & Parking - Maarif,Apartment in El Maarif district,48500.0,4.87,52,33.57067,-7.64403,True,False,False,march
923163814897745791,casablanca,Comfy & Modern Studio | blv Anfa,Apartment in بالفرنسية,47939.0,4.66,62,33.59207,-7.637,False,False,False,march
1422567636143430642,casablanca,Remarkable apartment - Princesses terrace,Apartment in El Maarif district,56003.0,4.94,18,33.5787,-7.6464,False,True,False,march
1194334989969956423,casablanca,Picasso Studio | Cozy Terrace & Parking - Maarif,Apartment in El Maarif district,49220.0,4.91,65,33.5713,-7.6435,False,True,False,march
893444594942231871,casablanca,Premium Stay - Gauthier Luxury Living,Apartment in Casablanca,52000.0,4.77,52,33.59,-7.6315,True,False,False,march
1006621228606705514,casablanca,"Chic 1 BR central with terrace, wifi and parking",Apartment in El Maarif district,52820.0,4.94,54,33.5742,-7.6462,True,False,False,march
1556438386192312146,casablanca,Les Princesses| Heart of Maarif| Modern & stylish,Apartment in Casablanca,43320.0,0.0,0,33.5738,-7.646,True,False,False,march
1366899290612974640,casablanca,212. Pleasant stay in the city center,Apartment in El Maarif district,48637.0,4.86,42,33.582623435308875,-7.633718553712354,True,False,False,march
1439656789674233578,casablanca,GoodMove | 1BR Flat w/ Patio• Central Casablanca,Apartment in ANFA,46788.0,4.7,33,33.5993,-7.6412,False,False,False,march
931035476659716736,casablanca,Studio modern anfa,Apartment in بالفرنسية,52784.0,4.87,83,33.5929,-7.6357,True,False,False,march
830336939184628790,casablanca,Absolute Gem in Central Casa,Apartment in El Maarif district,49984.0,4.73,158,33.56099,-7.63869,True,False,False,march
1211532056686245310,casablanca,1 bed apt 5 min to the beach/Gym/Garden/200Mbps,Apartment in ANFA,51560.0,4.95,39,33.59502,-7.65133,False,True,False,march
1176582654710829070,casablanca,1 Bed apt near the beach -Separated Kitchen-Gym,Apartment in ANFA,48020.0,4.83,36,33.59533,-7.64949,False,True,False,march
682638386295475855,casablanca,Panoramic CosySunny Studio Gauthier Bigterrace AC,Apartment in بالفرنسية,53560.0,4.82,93,33.59302,-7.63377,False,True,False,march
1486583257002402477,casablanca,C071.7. Central & cosy flat,Apartment in El Maarif district,51400.0,4.83,6,33.5788,-7.6287,True,False,False,march
1513734892832950351,casablanca,Beautiful apartment for rent with private beach pool,Apartment in Al-Fida,56537.0,0.0,0,33.57363841220721,-7.590808238312176,False,False,False,march
49687045,casablanca,Spacious & Calm Apartment,Apartment in Casablanca,47279.0,4.8,315,33.5651,-7.64696,True,False,False,march
1002774816729845647,casablanca,Amazing Art déco !,Apartment in Casablanca,41082.0,4.79,131,33.59389,-7.60676,True,False,False,march
1326871049612516870,casablanca,Elegant Apartment with City View,Apartment in El Maarif district,44369.0,4.36,14,33.5777,-7.6246,False,False,False,march
1456300694650376228,casablanca,"Central House with Wi-Fi, A/C",Apartment in Casablanca,49280.0,0.0,0,33.58095,-7.59949,True,False,False,march
1003373619892264128,casablanca,Urban Charm : chic and modern studio,Apartment in ANFA,57495.0,4.88,83,33.59986,-7.64776,False,False,False,march
1436339097419068780,casablanca,GoodMove | 1BR Escape w/ Balcony • Bourgogne,Apartment in ANFA,45419.0,4.81,16,33.59837410092712,-7.641615192242614,False,False,False,march
1003480308867264258,casablanca,"C037. Ideal apartment, Bd Anfa",Apartment in بالفرنسية,50200.0,4.75,63,33.5939,-7.63073,True,False,False,march
831193497705415132,casablanca,"Cosy Appartement Central, Palmier #04",Apartment in El Maarif district,52173.0,4.7,99,33.57881,-7.62728,False,False,False,march
45331580,casablanca,Calm & Chill Girondin 🌳 Peace Of Mind Guaranteed,Apartment in Casablanca,51301.0,4.86,111,33.5796,-7.5944,True,False,False,march
1418902281238708250,casablanca,Chic Studio Terrace Centre Casa,Apartment in El Maarif district,42102.0,4.78,9,33.5806,-7.6225,True,False,False,march
820952692085640394,casablanca,Modern & Large Studio in Casablanca - Bd Anfa,Apartment in بالفرنسية,46816.0,4.88,57,33.59545,-7.62934,False,True,False,march
1374877752347248670,casablanca,Luxurious CFC apartment,Apartment in Casablanca,47929.0,0.0,0,33.563273667677926,-7.659671623705276,True,False,False,march
897957705570982669,casablanca,"10th floor with city, Mosque and ocean view!",Apartment in بالفرنسية,48329.0,4.94,31,33.59362,-7.63369,False,True,False,march
1263023824313305991,casablanca,Cozy Apartment in Palmier,Apartment in El Maarif district,50563.0,4.77,13,33.577089753977674,-7.627687199040327,True,False,False,march
40978775,casablanca,Cosy appartement panoramic view of Casa Maarif AC,Condo in El Maarif district,52565.0,4.88,202,33.5752,-7.6472,True,False,False,march
735587639110339227,casablanca,"Your sunny apartment! Wi-Fi, Netflix",Apartment in واحة,52314.0,4.91,107,33.55241,-7.64319,False,False,False,march
1064433254148940707,casablanca,C016. Studio cosy Racine,Apartment in ANFA,44400.0,4.73,106,33.59334,-7.64441,False,True,False,march
1243442137531347355,casablanca,HM24 | Luxurious Studio in the City Center,Apartment in El Maarif district,50722.0,4.82,51,33.58198,-7.63442,True,False,False,march
1196499074932308428,casablanca,Studio in the heart of Casablanca,Apartment in بالفرنسية,56667.0,4.98,40,33.59238,-7.63626,False,True,False,march
1382567323518106401,casablanca,Cosy Netflix & Amazing Sunset View,Apartment in ANFA,55760.0,4.84,32,33.5985,-7.6482,True,False,False,march
604351969574248767,casablanca,maarif luxury appart – elegance and comfort,Apartment in El Maarif district,49324.0,4.86,96,33.5841,-7.6386,True,False,False,march
38574191,casablanca,"C005. Charming apartment, Casa Centre",Condo in Casablanca,51560.0,4.79,235,33.5868,-7.61142,True,False,False,march
1278347684226207841,casablanca,Studio 07 Maarif | High Speed Wi-Fi,Apartment in El Maarif district,42161.0,4.78,18,33.5822,-7.6349,False,False,False,march
842019732786668575,casablanca,"Great Studio next to McDonald's, Zara, Maarif",Apartment in El Maarif district,46585.0,4.84,94,33.5853,-7.63324,False,True,False,march
1205252623371215120,casablanca,Cozy accommodation,Apartment in El Maarif district,47815.0,4.62,50,33.55593,-7.62316,True,False,False,march
1060756960113982805,casablanca,Apartment with parking,Apartment in بيلفيدير,48386.0,4.93,71,33.5966,-7.5929,False,True,False,march
34573067,casablanca,"Loft studio with unobstructed view, high floor 3",Loft in Casablanca,47929.0,4.73,481,33.58977,-7.63394,False,False,False,march
1296336265113145277,casablanca,Modern and Elegant - Oasis,Apartment in El Maarif district,50212.0,4.93,15,33.56,-7.6273,False,True,False,march
1418685523250079955,casablanca,Modern apartment 95 Burgundy,Apartment in ANFA,40358.0,4.73,26,33.59717,-7.64526,False,True,False,march
1333207169319279977,casablanca,Elegant Studio in City Center,Apartment in El Maarif district,50029.0,4.98,44,33.5833,-7.6346,False,True,True,march
1210332519216997277,casablanca,Modern&Cosy 1BR |Anfa-Ziraoui|FastWifi+Parking,Apartment in بالفرنسية,55629.0,4.95,39,33.5946,-7.6335,False,True,False,march
30691293,casablanca,"New and comfortable Appartment, Casa Center",Condo in Casablanca,46820.0,4.84,380,33.5866,-7.6111,True,False,False,march
608098472165182345,casablanca,Dream studio for a memorable stay,Apartment in بيلفيدير,44049.0,4.93,236,33.5861,-7.5971,False,True,False,march
919485871140106519,casablanca,Cosy Gauthier place Ollier balcon with AC,Apartment in El Maarif district,51069.0,4.92,59,33.59036,-7.63425,False,True,False,march
721057436797286440,casablanca,Quiet & Peaceful Girondin II - Garage & Tramway,Apartment in Casablanca,50554.0,4.85,93,33.58181,-7.5942,True,False,False,march
848465279764999075,casablanca,Cosy Studio au coeur de Casablanca,Apartment in بيلفيدير,44734.0,4.92,141,33.5862,-7.5971,False,True,False,march
1302929318915709026,casablanca,Large & Chic 1BR in the Heart of Casablanca,Apartment in El Maarif district,51581.0,4.93,15,33.5713,-7.6435,True,False,False,march
1228462641264953437,casablanca,2 min from Tram + Fiber Optic! Cozy and Central!,Apartment in El Maarif district,47929.0,4.92,84,33.5782,-7.6245,False,True,False,march
1434621302971709586,casablanca,Sunny Balcony • Design Flat • Central Stay,Apartment in El Maarif district,45820.0,4.79,24,33.57250379963614,-7.645108948088421,False,True,False,march
1390081637793719804,casablanca,Casa Sunshine Serviced Apartment N03,Apartment in ANFA,43365.0,4.48,23,33.598511506064035,-7.6442920926608195,False,False,False,march
881819268743410407,casablanca,A love nest in Maarif,Apartment in El Maarif district,53065.0,4.82,11,33.584,-7.63845,True,False,False,march
1237154178024489787,casablanca,Warm & Lovely Socrate - Garage & Fiber Internet,Apartment in El Maarif district,45702.0,4.83,41,33.5796,-7.6443,True,False,False,march
1486529190153271302,casablanca,C071.4. Cosy apartment & balcony,Apartment in El Maarif district,50800.0,0.0,0,33.57828,-7.62942,True,False,False,march
1131376950345121967,casablanca,Comfortable studio in a lively area,Apartment in Oulad Abbou,40169.0,4.84,56,33.5845,-7.6115,False,True,False,march
1388510478034976393,casablanca,Casa Sunshine Serviced Apartment N14,Apartment in ANFA,41995.0,4.59,17,33.5977,-7.6434,False,False,False,march
1353698408346041613,casablanca,Chic apartment in the heart of the city.,Apartment in El Maarif district,49984.0,4.88,25,33.5855,-7.6356,True,False,False,march
47051190,casablanca,C004. Cozy apartment in the city center,Apartment in Casablanca,46820.0,4.78,199,33.58677,-7.61189,True,False,False,march
864761470455993852,casablanca,Riviera 28 - Peaceful flat - Open view near Ghandi,Apartment in El Maarif district,51581.0,4.93,74,33.5715,-7.6402,False,True,False,march
1437197343717149313,casablanca,Studio modern maarif,Apartment in El Maarif district,47970.0,4.41,17,33.58105,-7.64025,False,False,False,march
1339643045709901504,casablanca,Charming studio in the heart of the princesses,Apartment in El Maarif district,54112.0,4.67,12,33.5741,-7.6456,True,False,False,march
831834293882158023,casablanca,Wonderful apartment center Casablanca #43,Apartment in ANFA,49823.0,4.59,32,33.59378,-7.6419,False,False,False,march
1263586749833009013,casablanca,Casablanca Studio(NetFlix Fibre),Apartment in El Maarif district,43596.0,4.63,19,33.56971384165174,-7.643169513450478,False,False,False,march
1406643031240986827,fes,"Peaceful Private Room in Historic Riad, Fez Medina",Room in Fes,26247.0,4.96,24,34.0672,-4.9721,False,True,False,march
1406647811637297411,fes,Authentic Riad stay Charming Room in Fez Medina,Rooms in Fes,35376.0,5.0,9,34.0671,-4.9721,False,True,False,march
1545888126861787156,fes,Chic & spacious apartment ideal for a family,Apartment in Fes,38161.0,0.0,0,34.008,-5.0183,False,False,False,march
24660337,fes,Atlas View Roof Garden,Place to stay in Fes,24912.0,4.87,215,34.0651,-4.9817,False,True,True,march
1267376222194053181,fes,I am the earth house,Guesthouse in Fes,46104.0,4.93,29,34.0642,-4.9815,False,True,False,march
1287045560829001381,fes,Studio with private terrace,Apartment in Fes,47593.0,4.97,31,34.0604,-4.9764,False,True,True,march
7023949,fes,Furnished Studio with pool and parking  Fes Medina,Apartment in Fes,43595.0,4.72,586,34.0583,-4.9761,False,True,False,march
22189510,fes,Atlas View Roof Garden. Studio.,Apartment in Fes,37368.0,4.78,209,34.0651,-4.9817,True,False,False,march
1548099385328560445,fes,"Smart home, modern, quiet and comfortable",Apartment in Fes,45853.0,0.0,0,34.005,-5.0015,False,False,False,march
1287064676432613049,fes,Cozy independent apartment in a quiet area,Apartment in Fes,46104.0,4.92,25,34.0604,-4.9764,False,True,True,march
1425386968844893451,fes,"Peaceful Private Room in Historic Riad, Fez Medina",Room in Fes,33322.0,5.0,11,34.068429577190585,-4.9732714913913885,False,True,True,march
1524455575439228322,fes,Modern and refined apartment in the heart of the city,Apartment in Fes,43821.0,5.0,7,34.02428655937261,-5.028673922789455,False,True,False,march
1501955164897544279,fes,No Guest Fees - Sunset View - Downtown Fes,Apartment in Fes,44000.0,5.0,11,34.0082,-5.0068,False,True,True,march
1390035695129295677,fes,a private room,Room in Fes,28315.0,4.86,7,34.06526222657957,-4.976694031017403,False,True,False,march
1217607245564766194,fes,Cozy Apartment in Fez,Apartment in Fes,44622.0,4.8,50,34.031,-5.0297,False,True,False,march
616391631446329224,fes,Dar Hayati 4 (Cinnamon Room) Ground floor,Room in Fes,28648.0,4.9,199,34.06409,-4.97935,False,True,False,march
1510965167130130528,fes,Traditional apartment in heart of the old Medina,Apartment in Fes El Bali,39859.0,5.0,4,34.0579,-4.9758,False,False,False,march
30365757,fes,Riad Dar Lmallouki next to the blue door,Bed and breakfast in Fez-Meknès,22344.0,4.51,272,34.06339,-4.98231,False,False,False,march
1009546300812912206,fes,Luxury apartment in downtown Fez,Apartment in Fes,48158.0,4.87,194,34.0043,-4.9895,True,False,False,march
1550614167159201321,fes,"Dar Demlij ""A haven of peace in Fez.""",Riad in Fes,33962.0,0.0,0,34.063719105742585,-4.9777235311239085,True,False,False,march
1246473185906484459,fes,"Riad zerbtana, chambre essaouira.",Room in Fes,27155.0,4.85,26,34.06076,-4.97931,False,True,False,march
18392104,fes,Furnished studio with pool and parking in fes medina,Apartment in Fes,41104.0,4.74,375,34.05775,-4.97479,False,True,False,march
22033867,fes,Beautiful Amber room with AC at Dar Saray,Room in Fes Boulemane,41104.0,4.89,180,34.0181,-5.0078,False,True,False,march
1305691459509217177,fes,"dar aya Private-Aircondition-Terrace, heating",Townhouse in Fes,46086.0,4.96,23,34.06137226032027,-4.976605907309729,False,False,False,march
31865252,fes,Dar Sunrise R2 Super Close to Main Street,Place to stay in Fes,39859.0,4.91,162,34.06258,-4.98239,False,True,True,march
829481181136615135,fes,"Ideal for families: Modern, bright, parking, Netflix",Apartment in Fes,49461.0,4.95,149,34.0114,-5.01005,False,True,True,march
1113778475583875103,fes,Bedroom in a 19th-century palace with parking,Place to stay in Fes,28529.0,4.64,76,34.05909,-4.97669,False,False,False,march
1450912238654268774,fes,Ryan S5,Apartment in Fes,29671.0,4.82,17,34.0421,-4.9969,False,True,False,march
1239976355950059565,fes,"Riad zerbtana, Suite  Fés",Room in Fes,48577.0,4.94,32,34.06202,-4.97979,False,True,False,march
562752475437858363,fes,triple room in a Riad or courtyard of the medina,Bed and breakfast in Fes,47473.0,4.76,91,34.065570285307786,-4.977735225325805,True,False,False,march
4894548,fes,Suite chrifa,Room in Fes,39859.0,4.6,163,34.06566,-4.98172,False,False,False,march
1400266441818658077,fes,Apartment at the Entrance of Old Fes,Apartment in Fes,33436.0,4.82,34,34.0576,-4.9776,False,True,False,march
1246444828806474960,fes,"Riad Zerbtana, Chefchaouen rooms.",Room in Fes,27403.0,4.82,84,34.06144,-4.98157,False,True,False,march
25052871,fes,Amal – Suite in Old Fes – Place Seffarine,Room in Fes,41104.0,4.85,193,34.06537,-4.97131,False,True,False,march
12251645,fes,Tagore Room private 94Mbps with breakfast NEW FAN,Room in Fes,22839.0,4.88,60,34.06403,-4.9738,False,True,False,march
1193245180305797714,fes,Casa Maktub 1,Home in Fes,40156.0,4.9,40,34.06371,-4.98358,False,True,False,march
850850,fes,Seffarine Room fab view A/C 94Mbps +free breakfast,Room in Fes,36653.0,4.81,240,34.06449725739355,-4.976946138014352,False,True,True,march
21633149,fes,Beautiful Sultan Room with AC at Dar SARAY,Room in Fes,44841.0,4.88,234,34.06545,-4.97671,False,True,False,march
15489269,fes,Room in  lovely Medina House with private bathroom,Guesthouse in Fes,42350.0,4.92,168,34.05995,-4.98132,False,True,False,march
31865336,fes,Dar Sunrise R3 Super Close to Main Street,Room in Fes,43595.0,4.91,176,34.06373,-4.98265,False,True,False,march
22033520,fes,Beautiful AZRAK room with AC at Dar Saray,Room in Fes Boulemane,41104.0,4.85,273,34.06542,-4.97878,False,True,True,march
814348380986709643,fes,"Luxurious, secure, air-conditioned apartment with parking",Condo in Fes,34235.0,4.74,155,34.0103,-5.0037,False,False,False,march
1249363206526086344,fes,"Riad zerbtana, chambre Marrakech",Room in Fes,27155.0,4.8,45,34.06038276576521,-4.980103960043447,True,False,False,march
850852,fes,Celeste Rooftop Room fab view AC 97Mbps free bfast,Room in Fes,33834.0,4.77,262,34.06439,-4.97753,False,True,False,march
1344784907439567955,fes,Double or Twin Room with Balcony,Guesthouse in Fes,40663.0,5.0,8,34.0654,-4.9789,False,True,False,march
1548702135540103081,fes,Riad Fez • Private room • Rooftop • Medina view,Riad in Fes,35376.0,0.0,0,34.01929515601513,-5.006979379329206,True,False,False,march
1521782479459958079,fes,3BR Apartment-CityCenter-Omar Residency by ZenStay,Apartment in Fes,38515.0,4.71,14,34.03065,-4.99421,False,False,False,march
1148658412226410399,fes,Casa Maktub,Apartment in Fes,40156.0,4.91,74,34.0643,-4.9825,False,True,False,march
1362949329993611245,fes,Aleyna's Home (City Centre),Apartment in Fes,36518.0,4.93,15,34.029629185284946,-4.991648299296681,False,True,False,march
1489045188087982770,fes,24-hour guarded neighborhood,Apartment in Fes,42224.0,4.77,30,34.0194,-5.0041,False,True,False,march
24048780,fes,Luxury-Suite Private-Bathroom-Aliya,Room in Fes,37368.0,4.84,58,34.06517,-4.98148,False,False,False,march
317555,fes,Lovely Medina House. Rooms with private bathrooms,Rooms in Fes,48577.0,4.89,655,34.06348,-4.97855,False,True,False,march
24048779,fes,Luxury Suite - Private Bathroom - Salma,Hotel room in Fes,34985.0,4.59,17,34.06576,-4.98116,False,False,False,march
1419465513263269428,fes,AR Cozy apartments and close to everything!,Apartment in Fes,45647.0,4.79,28,34.0381,-5.0113,False,True,False,march
48462397,fes,Elegant Riad Room with Courtyard View in Fes,Room in Fes,40500.0,4.64,129,34.0622,-4.9804,True,False,False,march
33311610,fes,Ryan S2,Apartment in Fes,31140.0,4.7,138,34.04144,-4.99599,False,False,False,march
948522048551018612,fes,Beautiful Spacious WiFi/Air Conditioning/Parking/Elevator,Apartment in Fes,47332.0,4.97,64,34.00981,-5.00267,False,True,True,march
1362887195484391133,fes,Aleyna's Home (Spacious and Well Located),Apartment in Fes,47929.0,4.73,26,34.019447043301724,-4.986931027118401,True,False,False,march
23120238,fes,Salam - The Arabic feeling 3,Room in Fes,22421.0,4.78,298,34.06416,-4.9799,True,False,False,march
50452869,fes,Fatima Private triple  Room & Bathroom,Room in Fes,39447.0,4.89,9,34.06433,-4.97117,False,True,False,march
39482760,fes,"Superior Double Room "" DADA "" Riad Dar Belmamoun",Room in Fes,38613.0,4.78,50,34.06251,-4.98558,True,False,False,march
42064371,fes,Home in mehdi,Home in Fes,42350.0,4.75,197,34.0592,-4.9897,False,False,False,march
1545311759830407436,fes,2BR Apartment W/Balcony-City Center–Omar Residency,Apartment in Fes,37836.0,5.0,3,34.03065101729201,-4.994307609675106,False,False,False,march
767152309993445970,fes,chambre Amal Fes medina,Room in Fes,31953.0,5.0,26,34.0642,-4.9729,False,True,True,march
48326515,fes,Cozy Single Riad Room in the Heart of Fes Medina,Room in Fes,22000.0,4.84,70,34.0623,-4.9807,False,True,False,march
4899490,fes,Rooms Vanille - Riad Jamai,Hotel room in Fes,48154.0,4.74,126,34.065723,-4.967796,False,False,False,march
1246508856020131746,fes,"Riad zerbtana, Chambre Radia",Room in Fes,30891.0,4.71,63,34.06068,-4.97926,True,False,False,march
1552836831589279594,fes,Rooftop • Fez Medina View • Private Room in Riad,Riad in Fes,34501.0,0.0,0,34.06217,-4.98181,True,False,False,march
1243600879803543716,fes,Jasmine City Center Apartment | Unique & Stylish,Apartment in Fes,42224.0,4.86,57,34.0295,-4.9917,False,True,False,march
1248533646238533210,fes,Fez Spacious Stay with Moroccan Artisanal Charm,Apartment in Fes,40046.0,4.83,46,34.0544,-5.0463,True,False,False,march
711509015880545689,fes,Jad-room,Room in Fes,45647.0,4.85,68,34.0625,-4.97727,True,False,False,march
1318729053259015085,fes,Modern apartment in fes,Apartment in Fes,45647.0,4.66,38,34.0446,-5.004,False,False,False,march
18732208,fes,Dar Hayati 2 (Yasmina room) 1st floor,Room in Fes,43595.0,4.92,62,34.06423,-4.98128,False,True,True,march
22586587,fes,Ryan S1,Apartment in Fes,31140.0,4.71,203,34.04295,-4.99743,False,False,False,march
6335001,fes,Room in a Gorgeous Medina House,Hotel room in Fes el Bali,48577.0,4.92,318,34.06122,-4.9806,False,True,False,march
1505755248400088012,fes,room in a 19th century palace private parking,Place to stay in Fes el Bali,28529.0,0.0,0,34.05700949228857,-4.976691501354058,False,False,False,march
1246489608198070413,fes,"Riad zerbtana, Chambre Hiba",Room in Fes el Bali,30390.0,4.71,58,34.06024,-4.98114,True,False,False,march
1552438642323871122,fes,Private room in a historic Riad in the Medina,Riad in Fes,43071.0,0.0,0,34.0616290357667,-4.983306203346749,True,False,False,march
2928980,fes,"Riad Jamaï, Fez medina",Hotel room in Fes el Bali,48154.0,4.67,214,34.065708,-4.967684,False,False,False,march
1426723510560697121,fes,Cozy getaway close to everything,Apartment in Fes,43479.0,4.86,37,34.0014,-5.0124,False,True,False,march
10922807,fes,air-conditioned bedroom with balcony overlooking the garden,Room in Fes el Bali,37368.0,4.62,330,34.0582,-4.9766,False,False,False,march
50132826,fes,Ryan S3,Apartment in Fes,23167.0,4.67,135,34.04384,-4.99975,False,False,False,march
1062161616940438301,fes,Kenzah Room in Riad Taha,Room in Fes el Bali,42803.0,4.88,16,34.06429,-4.96938,False,True,False,march
1018724609646078359,fes,Snug Appartement Fes Center,Apartment in Fes,46674.0,4.87,53,34.0102,-5.0033,False,True,False,march
36576952,fes,Roomdowntown in private home near CTM &Gare Wi-Fi,Room in Fes,21921.0,4.94,81,34.03457,-4.99973,False,True,False,march
1231199555286954102,fes,apartment in fes 3,Rooms in Fes,25791.0,4.71,17,34.0461450286418,-5.063580359937951,False,False,False,march
863156128371066717,fes,chambre 6,Room in Fes el Bali,24912.0,4.76,74,34.06552,-4.97937,False,True,False,march
48442776,fes,Luxury Riad Suite with Rooftop in Fes Medina,Room in Fes el Bali,38784.0,4.58,36,34.0623,-4.9803,True,False,False,march
1346559664191758263,fes,Room in guest houses Dar Berrada Ziat,Room in Fes el Bali,32053.0,0.0,0,34.0573,-4.977,False,False,False,march
31488591,fes,Small Spacious Quiet and Bright Gem in the Center,Apartment in Fes,33630.0,4.6,237,34.03018,-4.98766,False,False,False,march
1099123625577656153,fes,Dar Sunrise Long-term Stay Room,Room in Fes el Bali,29671.0,5.0,9,34.0638,-4.98204,False,True,False,march
1008531058178805235,fes,Cityscape home,Apartment in Fes,39371.0,4.89,106,34.0101,-5.0048,False,True,False,march
1662718,fes,Dar Drissi guest house - Merenid Room,Room in Fes el Bali,28834.0,4.85,165,34.06507,-4.97807,False,True,False,march
23353089,fes,Ada - Room in Old Fes - Seffarine Square,Room in Fes el Bali,38612.0,4.86,191,34.06389,-4.9709,False,True,False,march
750538636381248697,fes,Perfect place! AC - Center - WI-FI - Free parking,Apartment in Fes,43427.0,4.88,96,34.0128,-5.0033,True,False,False,march
1134876853823313717,fes,"Garden view room in riad, on-site parking",Room in Fes el Bali,28529.0,4.67,21,34.0583,-4.9766,False,False,False,march
1552233835711531119,fes,Private room in a Riad in the Medina of Fez,Riad in Fes,43071.0,0.0,0,34.060561178959034,-4.98177546369786,True,False,False,march
1166094166380405530,fes,Perfect! AC - Wi-Fi - Free parking,Apartment in Fes,45879.0,4.93,45,34.0148,-5.0001,False,True,False,march
1290435836166486396,fes,"Logement entier:"" Medina's Home""",Apartment in Fes el Bali,39941.0,4.95,20,34.05909914973117,-4.978790242801117,False,True,False,march
1206306489987585655,fes,Cottage home,Apartment in Fes,39371.0,4.97,32,34.0105,-5.0048,False,True,False,march
40172854,fes,Chambre Lilas,Room in Fes,37367.0,5.0,21,34.005,-5.0105,False,True,False,march
1014520336994259197,fes,nice apartment 12,Apartment in Fes,40968.0,5.0,33,34.0104,-5.0037,False,True,False,march
1348491248595017601,fes,Lux Apartment in Fes,Apartment in Fes,43617.0,4.63,19,34.0009,-5.0059,False,False,False,march
946038101074376799,fes,Oumnia Residence 8,Apartment in Fes,45076.0,4.84,132,34.0102,-5.0033,False,True,False,march
4489544,fes,Dar Drissi guest house - Terrace Room,Room in Fes el Bali,41793.0,4.83,105,34.0641,-4.9792,False,True,False,march
1118869090711976338,fes,Jnane Berbère Apartment,Apartment in Fes el Bali,45647.0,4.85,46,34.06139,-4.9761,False,True,False,march
28329017,fes,Dar Mfaddel,Room in Fes el Bali,24664.0,4.65,142,34.06286,-4.97617,False,False,False,march
1226023218049182954,fes,Short-Term Housing & Rentals,Apartment in Fes,48614.0,4.93,55,34.00665,-5.01206,False,True,False,march
29411898,fes,"""Fatima"" room in authentic house",Room in Fes el Bali,26157.0,4.8,89,34.0659,-4.9773,False,False,False,march
1462226415653783733,fes,At my place (Khadija),Apartment in Fes,45191.0,4.54,13,34.05874406204595,-4.9888696974759625,True,False,False,march
1554274966308937460,fes,Riad Ruh Fes - The Spirit of Fes Guesthouse,Riad in Fes,46288.0,0.0,0,34.0621,-4.9846,False,False,False,march
51166311,fes,Riad Dar Hidaya Fes,Rooms in Fes el Bali,31638.0,4.79,71,34.06383,-4.98065,False,False,False,march
1326101405390674560,fes,Charming Spacious Gem 14 min From Old Medina,Apartment in Fes,39161.0,4.77,52,34.0558,-5.0476,True,False,False,march
1385685397563506554,fes,nice apartment 5,Apartment in Fes,39827.0,5.0,6,34.0052,-5.0052,False,True,False,march
1552499116719439916,fes,Private room • rooftop • medina • beautiful view,Riad in Fes,43071.0,0.0,0,34.0605261883154,-4.982873869139549,True,False,False,march
1013362350400066836,fes,charming apartment 7,Apartment in Fes,43251.0,4.9,63,34.01054,-5.00364,False,True,False,march
1139431310025920019,fes,Cozy and quiet apartment,Apartment in Fes,48716.0,4.76,21,34.0374,-5.0396,False,False,False,march
1539994225612533802,fes,Room bed and breakfast,Place to stay in Fes,48419.0,0.0,0,34.0631,-4.9769,False,False,False,march
1348447919962847370,fes,Cozy Appart in the heart of fez,Apartment in Fes,44506.0,5.0,3,34.0105,-5.0049,False,False,False,march
822161683879802006,fes,"Private room, free Wi-Fi",Room in Fes el Bali,35376.0,4.75,12,34.0569,-4.9733,False,False,False,march
625802352731317118,fes,Cosy studio with a luxury touch,Condo in Fes,39400.0,4.66,79,34.00552,-4.99041,False,False,False,march
1018291265959407916,fes,Dar Lalj,Guesthouse in Fes el Bali,45647.0,5.0,6,34.06167,-4.97938,False,True,False,march
3495126,fes,Dar Drissi guest house - Fatima Room,Room in Fes el Bali,41793.0,4.76,181,34.0641,-4.9792,False,False,False,march
989266454968147546,fes,Quiet & Perfect Apartment,Apartment in Fes,36518.0,4.64,11,34.0134,-5.0039,False,False,False,march
22788500,fes,DAR LALA NAJIA,Room in Fes el Bali,25676.0,4.48,25,34.0638,-4.9825,True,False,False,march
1328161350596518293,fes,cozy apartment with wifi,Apartment in Fes,38114.0,4.67,21,34.038537568925406,-5.031977989130984,False,False,False,march
1227658053588436218,fes,Rose,Apartment in Fes,36518.0,4.86,35,34.0062,-5.0123,False,True,False,march
3000882,fes,"RM04-RMILA MEDINA FEZ, 2P, bathroom",Hotel room in Fes el Bali,34876.0,4.51,49,34.065174,-4.970024,False,False,False,march
38213499,fes,Double Suite Riad Zina Fès - Quartier Seffarine,Hotel room in Fes el Bali,39063.0,4.27,11,34.06619,-4.97149,False,False,False,march
16894039,fes,Ryan 1,Apartment in Fes,38612.0,4.68,173,34.03482,-5.00098,False,False,False,march
984187,fes,Apartment with Windows to the Heart of Fez Medina,Apartment in Fes el Bali,43702.0,4.65,205,34.05754,-4.97812,True,False,False,march
1502238098379761001,fes,"Welcome to Fez, Morocco",Apartment in Fes,36289.0,4.8,5,34.0279,-5.0234,False,False,False,march
1109291958925415984,fes,antique apartment 20,Apartment in Fes,40512.0,4.9,30,34.0102,-5.0039,False,True,False,march
1448614742435597657,fes,appartement Khadija,Home in Fes,40226.0,5.0,4,34.0579,-4.9887,True,False,False,march
21601636,fes,Dar Amrani 20 - SINGLE ROOM in Fes Medina,Room in Fes,31009.0,4.89,19,34.0615,-4.9755,False,True,False,march
48462705,fes,Authentic Riad Room with Rooftop in Fes,Room in Fes,35000.0,4.71,82,34.0625,-4.9807,True,False,False,march
50452883,fes,Shahrazad Private double Room & Bathroom,Room in Fes,39200.0,0.0,0,34.06406,-4.97083,True,False,False,march
711488801918769590,fes,Ember-room,Room in Fes,42224.0,5.0,4,34.06007,-4.97153,True,False,False,march
1321103854086963350,fes,Spacious apartment (3 air conditioners) in Bouramana,Apartment in Fes,46788.0,4.83,48,34.02051,-4.99237,False,True,False,march
938864269747964760,fes,Quiet and chic apartments 5 minutes from the city center,Apartment in Fes,32980.0,4.74,61,34.0135,-5.0052,False,False,False,march
40018454,fes,Dar Sunrise R4 Super Close to Main street,Place to stay in Fes,40357.0,4.87,15,34.06417,-4.98117,False,True,False,march
837646837333608863,fes,Riad Dar Nouar 3 guest house,Bed and breakfast in Fes,44841.0,4.89,9,34.0625,-4.9851,False,True,False,march
1106540500828502929,fes,Zack Room: Complimentary Breakfast | Terrace,Bed and breakfast in Fes,22824.0,0.0,0,34.05766,-4.99166,False,False,False,march
1174535681694561662,fes,Atlas City Center Apartment | 2BR New Town,Apartment in Fes,39941.0,4.56,105,34.0324,-4.9936,False,False,False,march
1279027394963516477,fes,Clean apartment and in a good location.,Apartment in Fes,36746.0,5.0,25,34.0397,-5.0324,False,True,True,march
1493554786021808687,fes,Quiet and spacious apartment.,Apartment in Fes,35376.0,5.0,3,34.00394718579992,-5.008909558437479,True,False,False,march
39497098,fes,"Superior Double Room "" AZIZI "" Riad Dar Belmamoun",Room in Fes,39859.0,5.0,5,34.06238,-4.9857,True,False,False,march
1167268706688580686,fes,Serenity home,Apartment in Fes,39371.0,4.86,35,34.009811001361754,-5.005250839198701,True,False,False,march
1129693254906796450,fes,Chic and comfortable air-conditioned apartment,Apartment in Fes,34121.0,4.47,15,34.01021,-5.0053,False,False,False,march
10585650,fes,"Room with garden view, on-site parking",Room in Fes,23666.0,4.64,169,34.0583,-4.9765,False,False,False,march
48442360,fes,Authentic Riad Room with Rooftop in Fes Medina,Room in Fes,45000.0,4.57,30,34.0625,-4.9805,True,False,False,march
1307224258735070711,fes,Charming house/apartment in the heart of Fez,Apartment in Fes,37887.0,4.83,12,34.0226,-5.0104,True,False,False,march
17864291,fes,Riad Sheryne amazing little palace into the medina,Rooms in Fes,42350.0,4.67,45,34.06065,-4.97949,False,False,False,march
975382419449415021,fes,Superb private room in the Medina of Fez,Riad in Fes,40280.0,4.63,65,34.06369,-4.97961,False,False,False,march
32651915,fes,Ryan apart 3,Apartment in Fes,31886.0,4.6,124,34.04322,-4.99672,False,False,False,march
51420383,fes,"New, quiet and bright apartment.",Apartment in Fes,35605.0,4.79,62,34.0159,-5.0017,True,False,False,march
822168205393498858,fes,Charmante chambre,Room in Fes,35376.0,4.63,16,34.05536,-4.97447,False,False,False,march
10815707,fes,Air-conditioned room in a riad with on-site parking,Room in Fes,23666.0,4.66,145,34.0582,-4.9766,False,False,False,march
832427956895734050,fes,Guest house Riad Dar Nouar,Room in Fes,40813.0,5.0,4,34.062,-4.9858,True,False,False,march
16510236,fes,Medina view room in 19th century palace,Room in Fes,28648.0,4.44,129,34.0587,-4.9752,False,False,False,march
12299188,fes,Air-conditioned room in a riad with on-site parking,Room in Fes,23666.0,4.6,151,34.0582,-4.9766,False,False,False,march
868346587228389810,fes,Very pretty apartment in the city center - Atlas,Apartment in Fes,42224.0,4.7,46,34.0288,-4.9918,False,False,False,march
24256644,fes,Adam's house- Fes City,Apartment in Fes,38800.0,4.63,105,34.0265,-5.0065,False,False,False,march
1367578505927055626,fes,Air-conditioned room in a riad with on-site parking,Room in Fes,28529.0,4.5,10,34.05738838079553,-4.976097188231131,False,False,False,march
42570549,fes,Chambre Double Standard at Riad Meski,Guesthouse in Fes,40663.0,4.63,8,34.06562,-4.97578,False,False,False,march
19827875,fes,Modern Flat in Fes DownTown - Wifi include,Apartment in Fes,48072.0,4.68,185,34.0337,-4.9982,True,False,False,march
1534988801984005302,fes,bed and breakfast,Bed and breakfast in Fes,34464.0,0.0,0,34.06501,-4.97932,False,False,False,march
792513214405090272,fes,"Moroccan Triple Room "" SARA "" Riad Dar Belmamoun",Guesthouse in Fes,41082.0,5.0,3,34.0628,-4.985,True,False,False,march
711472419408667969,fes,Adam-room,Room in Fes el Bali,43365.0,0.0,0,34.05992,-4.97162,True,False,False,march
1544216289842165236,fes,bed and breakfast,Bed and breakfast in Fes,44974.0,0.0,0,34.06075,-4.97216,False,False,False,march
10923207,fes,Double room with garden view + AC + Wi-Fi + free parking,Room in Fes el Bali,31139.0,4.57,324,34.0582,-4.9766,False,False,False,march
50452924,fes,Yakout Private double Room & Bathroom,Room in Fes el Bali,44800.0,0.0,0,34.06227,-4.97036,True,False,False,march
1506019405668988356,fes,Student studio – 2 minutes from the university,Place to stay in Fes,22801.0,0.0,0,34.0452,-5.0627,False,False,False,march
1285575608532463606,fes,CASA Amina | View of Train Station & Downtown,Apartment in Fes,42224.0,4.67,33,34.0466,-5.0021,False,False,False,march
1323738519832152050,fes,Getaway to Fez,Apartment in Fes,46104.0,0.0,0,34.0421,-5.0006,False,False,False,march
42689583,fes,Dar Rbab - Amazigh Room,Place to stay in Fes el Bali,43595.0,0.0,0,34.06579,-4.97606,False,False,False,march
28434721,fes,DAR IKRAM  / twin room,Room in Fes el Bali,43595.0,5.0,3,34.06405,-4.98138,False,False,False,march
1327618273163816301,fes,Chic apartment with 2 double bedrooms in Fez,Apartment in Fes,32936.0,4.45,11,34.0537,-5.0544,False,False,False,march
38023132,fes,Adam's moroccan style,Apartment in Fes,40169.0,4.65,95,34.02648,-5.00754,False,False,False,march
2418599,fes,Splendid room for rent in a riad,Room in Fes el Bali,29894.0,4.71,17,34.06084,-4.97563,True,False,False,march
631010599806813786,fes,Beautiful  rooms  Ali,Room in Fes el Bali,22436.0,4.78,40,34.06514,-4.97857,True,False,False,march
28433897,fes,DAR IKRAM / Double room 2,Rooms in Fes el Bali,43595.0,0.0,0,34.06226,-4.98129,False,False,False,march
50113262,fes,Laarousa Double Room & Bathroom,Bed and breakfast in Fes el Bali,39200.0,0.0,0,34.06252,-4.97112,True,False,False,march
14393146,fes,Riad BEHIND Roukia Room,Room in Fes el Bali,49611.0,4.67,3,34.06409,-4.97106,False,False,False,march
1510258666274259627,fes,Hotel Nouzha · Spacious Twin Luxe + Breakfast,Hotel in Fes,47745.0,0.0,0,34.0317332387902,-4.994462068597559,False,False,False,march
38566145,fes,DAR LALA NAJIA,Room in Fes el Bali,28529.0,4.5,16,34.0646,-4.9788,True,False,False,march
1152027086271895847,fes,"Nice apartment in the Medina of Fez, very good location",Apartment in Fes el Bali,42908.0,4.5,16,34.05838,-4.97861,False,False,False,march
805870977315697423,fes,Double room at Dar Labchara,Room in Fes el Bali,44506.0,5.0,3,34.0634,-4.9792,False,False,False,march
1227599469076299577,fes,Quadruple Comfort Room,Room in Fes el Bali,38953.0,0.0,0,34.05948,-4.98119,False,False,False,march
845065911085660679,fes,large suite at ali's,Room in Fes el Bali,26521.0,4.72,29,34.06379,-4.97828,True,False,False,march
34894672,fes,Small Spacious Quiet and Bright Gem in the Center,Apartment in Fes,33630.0,4.22,36,34.01933,-5.0271,False,False,False,march
1465988269420536513,fes,Modern studio 5 minutes from Euromed,Apartment in Fes,47929.0,5.0,6,34.04197321880972,-5.061659540414399,False,True,False,march
1115960199215862305,fes,room in former palace,Place to stay in Fes el Bali,28529.0,4.15,13,34.05739,-4.97491,False,False,False,march
1521127488126397829,fes,single double room,Bed and breakfast in Fes,31162.0,0.0,0,34.06255,-4.98019,False,False,False,march
12866054,fes,Dar nineta,Rooms in Fes el Bali,39039.0,4.26,31,34.0633,-4.9833,False,False,False,march
26314744,fes,DAR IKRAM / Double room 1,Room in Fes el Bali,43595.0,4.97,58,34.06422,-4.97999,False,True,False,march
1128223098997243020,fes,Riad Batha Samara Room,Room in Fes el Bali,42803.0,0.0,0,34.0596,-4.9814,False,False,False,march
39483632,fes,"Lovely & Quiet Room "" AICHA "" Riad Dar Belmamoun",Room in Fes el Bali,37368.0,0.0,0,34.06375,-4.98528,True,False,False,march
1366716304855168027,fes,Quiet and spacious apartment in the heart of Fez,Apartment in Fes,35764.0,4.77,13,34.0031,-5.0079,False,True,False,march
1530487817822293583,fes,furnished apartment in a very quiet location,Apartment in Fes,44518.0,0.0,0,34.005909518094406,-5.010424171472965,False,False,False,march
1505424078997621973,fes,bed and breakfast,Bed and breakfast in Fes el Bali,36071.0,0.0,0,34.05695962768624,-4.973049408814802,False,False,False,march
32883978,fes,Royal Room in Fes Medina Riad,Bed and breakfast in Fes el Bali,43017.0,4.47,17,34.0597,-4.9787,False,False,False,march
1348373054273276267,fes,Vacation apartment,Apartment in Fes,45647.0,4.75,12,34.05324,-5.04347,False,False,False,march
29965489,fes,VIP Double En-suite in Trendy Riad Hostel,Bed and breakfast in Fes el Bali,43017.0,4.51,35,34.0596,-4.9788,False,False,False,march
1080279799187374060,fes,Vibing Double e/s in Fes’ number 1 Riad Hostel,Riad in Fes el Bali,41733.0,4.6,5,34.0597,-4.9788,False,False,False,march
1304423516019887601,fes,"Riad Dar Mansoura Room, Chefchaouen",Room in Fes el Bali,48577.0,0.0,0,34.0621,-4.9836,True,False,False,march
50452978,fes,Amani Private Double Room & Bathroom,Room in Fes el Bali,47040.0,0.0,0,34.06294,-4.97171,True,False,False,march
50876377,fes,Cute Double e/suite in vibe riad hostel,Bed and breakfast in Fes el Bali,35527.0,4.5,34,34.0603,-4.9787,False,False,False,march
28434284,fes,DAR IKRAM/ Double room 3,Room in Fes el Bali,43595.0,4.67,3,34.0647,-4.98,False,False,False,march
711503528382148638,fes,Florie-room,Room in Fes el Bali,37659.0,0.0,0,34.06081,-4.97117,True,False,False,march
886275742425918965,fes,Artisanal apartment on Fes,Apartment in Fes el Bali,45647.0,4.67,3,34.05827,-4.97568,False,False,False,march
1285607354253098036,fes,Amina Home - 3BDR City Center & Train Station View,Apartment in Fes,42224.0,4.46,63,34.0465,-5.0021,False,False,False,march
1478999484514530429,fes,privates room,Room in Fes el Bali,33812.0,0.0,0,34.0672,-4.9767,False,False,False,march
17763429,fes,Riad Lalla Zoubida,Rooms in Fes el Bali,49823.0,4.91,11,34.06013,-4.98165,False,False,False,march
1522574594964864174,fes,single triple bedroom,Bed and breakfast in Fes,35614.0,0.0,0,34.06365,-4.98013,False,False,False,march
1292280039869094508,fes,riad Merzouga double bedroom 1,Room in Fes el Bali,36518.0,4.67,3,34.0624,-4.9825,False,False,False,march
3002552,fes,"RM03-RMILA MEDINA FEZ, 2P, comp.Bathroom",Hotel room in Fes el Bali,34876.0,4.6,15,34.065708,-4.970077,False,False,False,march
